{ "type": "FeatureCollection", "features": [{"type":"Feature","geometry":null,"properties":{"location_1_address":"5440 E Del AMO Blvd","website":null,":@computed_region_x8wy_s94z":null,"location_1_city":"Long Beach","location_1_state":"CA","location_1_zip":"90808","bookstore":"C M School Supply","phone":"Long Beach"}},{"type":"Feature","geometry":null,"properties":{"location_1_address":"123 Astronaut Ellison S","website":null,":@computed_region_x8wy_s94z":null,"location_1_city":"Los Angeles","location_1_state":"CA","location_1_zip":"90001","bookstore":"Kinokuniya Book Stores of America Company. Ltd.","phone":"Los Angeles"}},{"type":"Feature","geometry":null,"properties":{"location_1_address":"18824 Roscoe Blvd","website":null,":@computed_region_x8wy_s94z":null,"location_1_city":"Los Angeles","location_1_state":"CA","location_1_zip":"91335","bookstore":"Libreria Cristiana Un Solo Dios","phone":"Los Angeles"}},{"type":"Feature","geometry":null,"properties":{"location_1_address":"Ignatius Circ","website":null,":@computed_region_x8wy_s94z":null,"location_1_city":"Los Angeles","location_1_state":"CA","location_1_zip":"90045","bookstore":"LMU Bookstore","phone":"Los Angeles"}},{"type":"Feature","geometry":null,"properties":{"location_1_address":"1 Loyola Marymount University Dr","website":"(310) 338-2889",":@computed_region_x8wy_s94z":null,"location_1_city":"Los Angeles","location_1_state":"CA","location_1_zip":"90045","bookstore":"Loyola Marymount University Bookstore","phone":"Los Angeles"}},{"type":"Feature","geometry":null,"properties":{"location_1_address":"1234 Golden W Ave","website":null,":@computed_region_x8wy_s94z":null,"location_1_city":"Arcadia","location_1_state":"CA","location_1_zip":"91007","bookstore":"New World Book Store","phone":"Arcadia"}},{"type":"Feature","geometry":null,"properties":{"location_1_address":"13301 W Olympic Blvd","website":null,":@computed_region_x8wy_s94z":null,"location_1_city":"Los Angeles","location_1_state":"CA","location_1_zip":"90025","bookstore":"Sawtelle Books & Music","phone":"Los Angeles"}},{"type":"Feature","geometry":null,"properties":{"location_1_address":"12118 Santa Monica Blvd","website":"(310) 207-8895",":@computed_region_x8wy_s94z":null,"location_1_city":"Santa Monica","location_1_state":"CA","location_1_zip":"90404","bookstore":"Twelve n Twelve","phone":"Santa Monica"}},{"type":"Feature","geometry":{"type":"Point","coordinates":[-118.490816,34.047425]},"properties":{"location_1_address":"225 26th St, ste 33","website":"(310) 576-9960",":@computed_region_x8wy_s94z":"25711","location_1_city":"Santa Monica","location_1_state":"CA","location_1_zip":"90402","bookstore":"Diesel, A Bookstore","phone":"Santa Monica"}},{"type":"Feature","geometry":{"type":"Point","coordinates":[-118.352743,33.988844]},"properties":{"location_1_address":"4438 W Slauson Avenue","website":null,":@computed_region_x8wy_s94z":"23674","location_1_city":"Los Angeles","location_1_state":"CA","location_1_zip":"90043","bookstore":"Windsor Hills Christian Book Center","phone":"Los Angeles"}},{"type":"Feature","geometry":{"type":"Point","coordinates":[-118.124543,33.810602]},"properties":{"location_1_address":"5535 E Spring St","website":null,":@computed_region_x8wy_s94z":"4021","location_1_city":"Long Beach","location_1_state":"CA","location_1_zip":"90808","bookstore":"Gatsby Books","phone":"Long Beach"}},{"type":"Feature","geometry":{"type":"Point","coordinates":[-118.15263,33.775334]},"properties":{"location_1_address":"3350 E 7th St","website":null,":@computed_region_x8wy_s94z":"4012","location_1_city":"Long Beach","location_1_state":"CA","location_1_zip":"90804","bookstore":"Piggyback Books Inc","phone":"Long Beach"}},{"type":"Feature","geometry":{"type":"Point","coordinates":[-118.129552,34.062408]},"properties":{"location_1_address":"518 W Garvey Ave","website":null,":@computed_region_x8wy_s94z":"9729","location_1_city":"Monterey Park","location_1_state":"CA","location_1_zip":"91754","bookstore":"Ng Hing Kee of Los Angeles","phone":"Monterey Park"}},{"type":"Feature","geometry":{"type":"Point","coordinates":[-118.445027,34.069533]},"properties":{"location_1_address":"308 Westwood Plaza","website":"(310) 825-7711",":@computed_region_x8wy_s94z":"24344","location_1_city":"Los Angeles","location_1_state":"CA","location_1_zip":"90024","bookstore":"UCLA Bookstore","phone":"Los Angeles"}},{"type":"Feature","geometry":{"type":"Point","coordinates":[-118.3742,34.074521]},"properties":{"location_1_address":"101 N Croft Ave","website":null,":@computed_region_x8wy_s94z":"23679","location_1_city":"Los Angeles","location_1_state":"CA","location_1_zip":"90048","bookstore":"Three Geese in Flight Books","phone":"Los Angeles"}},{"type":"Feature","geometry":{"type":"Point","coordinates":[-118.357665,33.974739]},"properties":{"location_1_address":"900 N. La Brea Avenue","website":"310-330-1300",":@computed_region_x8wy_s94z":"25422","location_1_city":"Inglewood","location_1_state":"CA","location_1_zip":"90302","bookstore":"Zahra's Books and Things","phone":"Inglewood"}},{"type":"Feature","geometry":{"type":"Point","coordinates":[-118.309054,34.051577]},"properties":{"location_1_address":"1027 S Western Avenue","website":null,":@computed_region_x8wy_s94z":"22723","location_1_city":"Los Angeles","location_1_state":"CA","location_1_zip":"90006","bookstore":"Korean Christian Book Center","phone":"Los Angeles"}},{"type":"Feature","geometry":{"type":"Point","coordinates":[-118.132436,33.882052]},"properties":{"location_1_address":"9440 Flower St","website":null,":@computed_region_x8wy_s94z":"26326","location_1_city":"Bellflower","location_1_state":"CA","location_1_zip":"90706","bookstore":"EBP Catholic Store","phone":"Bellflower"}},{"type":"Feature","geometry":{"type":"Point","coordinates":[-118.275405,34.020808]},"properties":{"location_1_address":"245 W 33rd St","website":"(213) 748-7244",":@computed_region_x8wy_s94z":"22724","location_1_city":"Los Angeles","location_1_state":"CA","location_1_zip":"90007","bookstore":"Theosophy Hall","phone":"Los Angeles"}},{"type":"Feature","geometry":{"type":"Point","coordinates":[-118.232625,34.045985]},"properties":{"location_1_address":"300 S Santa Fe Ave","website":"(323) 466-1256",":@computed_region_x8wy_s94z":"22728","location_1_city":"Los Angeles","location_1_state":"CA","location_1_zip":"90012","bookstore":"Hennessey & Ingalls, Inc","phone":"Los Angeles"}},{"type":"Feature","geometry":{"type":"Point","coordinates":[-117.985454,33.930762]},"properties":{"location_1_address":"11217 1st Ave","website":null,":@computed_region_x8wy_s94z":"25723","location_1_city":"Whittier","location_1_state":"CA","location_1_zip":"90603","bookstore":"Little Bookworm Tutoring Center","phone":"Whittier"}},{"type":"Feature","geometry":{"type":"Point","coordinates":[-118.275405,34.020808]},"properties":{"location_1_address":"245 W 33rd St","website":null,":@computed_region_x8wy_s94z":"22724","location_1_city":"Los Angeles","location_1_state":"CA","location_1_zip":"90007","bookstore":"Ult Theosophy Co the","phone":"Los Angeles"}},{"type":"Feature","geometry":{"type":"Point","coordinates":[-118.289088,34.060699]},"properties":{"location_1_address":"675 S Westmoreland Ave","website":"(213) 738-6737",":@computed_region_x8wy_s94z":"22722","location_1_city":"Los Angeles","location_1_state":"CA","location_1_zip":"90005","bookstore":"Southwestern Law School","phone":"Los Angeles"}},{"type":"Feature","geometry":{"type":"Point","coordinates":[-118.2902,34.100201]},"properties":{"location_1_address":"4633 Hollywood Blvd","website":"(323) 663-0122",":@computed_region_x8wy_s94z":"23445","location_1_city":"Hollywood","location_1_state":"CA","location_1_zip":"90027","bookstore":"Wacko Soap Plant","phone":"Hollywood"}},{"type":"Feature","geometry":{"type":"Point","coordinates":[-118.314712,34.101697]},"properties":{"location_1_address":"5726 Hollywood Blvd","website":"(323) 463-3500",":@computed_region_x8wy_s94z":"23446","location_1_city":"Los Angeles","location_1_state":"CA","location_1_zip":"90028","bookstore":"Revolution Books","phone":"Los Angeles"}},{"type":"Feature","geometry":{"type":"Point","coordinates":[-118.216128,34.033607]},"properties":{"location_1_address":"919 S Soto Street","website":null,":@computed_region_x8wy_s94z":"23441","location_1_city":"Los Angeles","location_1_state":"CA","location_1_zip":"90023","bookstore":"Jerusalen Ribiera Christiano","phone":"Los Angeles"}},{"type":"Feature","geometry":{"type":"Point","coordinates":[-118.245403,34.057302]},"properties":{"location_1_address":"555 W Temple St","website":"(213) 680-5277",":@computed_region_x8wy_s94z":"22728","location_1_city":"Los Angeles","location_1_state":"CA","location_1_zip":"90012","bookstore":"Cathedral of Our Lady of the Angels Bookstore","phone":"Los Angeles"}},{"type":"Feature","geometry":{"type":"Point","coordinates":[-118.440153,34.053443]},"properties":{"location_1_address":"1518 Westwood Blvd","website":null,":@computed_region_x8wy_s94z":"23442","location_1_city":"Los Angeles","location_1_state":"CA","location_1_zip":"90024","bookstore":"Kolbe Ketab","phone":"Los Angeles"}},{"type":"Feature","geometry":{"type":"Point","coordinates":[-118.294331,34.052645]},"properties":{"location_1_address":"2785 W Olympic Boulevard","website":null,":@computed_region_x8wy_s94z":"22723","location_1_city":"Los Angeles","location_1_state":"CA","location_1_zip":"90006","bookstore":"Opes","phone":"Los Angeles"}},{"type":"Feature","geometry":{"type":"Point","coordinates":[-118.286363,34.061774]},"properties":{"location_1_address":"2978 Wilshire Boulevard","website":null,":@computed_region_x8wy_s94z":"22722","location_1_city":"Los Angeles","location_1_state":"CA","location_1_zip":"90010","bookstore":"Transmedia U S A Company","phone":"Los Angeles"}},{"type":"Feature","geometry":{"type":"Point","coordinates":[-118.192352,33.764097]},"properties":{"location_1_address":"101 S Pine Ave","website":null,":@computed_region_x8wy_s94z":"3704","location_1_city":"Long Beach","location_1_state":"CA","location_1_zip":"90802","bookstore":"One Dollar Bookstore","phone":"Long Beach"}},{"type":"Feature","geometry":{"type":"Point","coordinates":[-117.721038,34.107127]},"properties":{"location_1_address":"415 W Foothill Blvd","website":null,":@computed_region_x8wy_s94z":"8900","location_1_city":"Claremont","location_1_state":"CA","location_1_zip":"91711","bookstore":"Merlin's Crystal Cave","phone":"Claremont"}},{"type":"Feature","geometry":{"type":"Point","coordinates":[-118.527366,34.37811]},"properties":{"location_1_address":"24267 Main St","website":null,":@computed_region_x8wy_s94z":"4290","location_1_city":"Newhall","location_1_state":"CA","location_1_zip":"91321","bookstore":"Cookbooks Plus","phone":"Newhall"}},{"type":"Feature","geometry":{"type":"Point","coordinates":[-118.381144,34.086812]},"properties":{"location_1_address":"8730 Santa Monica Blvd","website":"(310) 623-1702",":@computed_region_x8wy_s94z":"24034","location_1_city":"West Hollywood","location_1_state":"CA","location_1_zip":"90069","bookstore":"My 12 Step Bookstore","phone":"West Hollywood"}},{"type":"Feature","geometry":{"type":"Point","coordinates":[-118.525113,34.048098]},"properties":{"location_1_address":"1049 Swarthmore Ave","website":"(310) 454-4063",":@computed_region_x8wy_s94z":"25066","location_1_city":"Los Angeles","location_1_state":"CA","location_1_zip":"90272","bookstore":"Village Books","phone":"Los Angeles"}},{"type":"Feature","geometry":{"type":"Point","coordinates":[-118.128785,34.144584]},"properties":{"location_1_address":"1039 E Green St","website":null,":@computed_region_x8wy_s94z":"3234","location_1_city":"Pasadena","location_1_state":"CA","location_1_zip":"91106","bookstore":"Century Books","phone":"Pasadena"}},{"type":"Feature","geometry":{"type":"Point","coordinates":[-117.936832,34.070553]},"properties":{"location_1_address":"112 Plaza Dr","website":null,":@computed_region_x8wy_s94z":"10146","location_1_city":"West Covina","location_1_state":"CA","location_1_zip":"91790","bookstore":"Dollar Book Store","phone":"West Covina"}},{"type":"Feature","geometry":{"type":"Point","coordinates":[-118.116678,33.914664]},"properties":{"location_1_address":"12820 Woodruff Ave","website":null,":@computed_region_x8wy_s94z":"24682","location_1_city":"Downey","location_1_state":"CA","location_1_zip":"90242","bookstore":"Chapel Store","phone":"Downey"}},{"type":"Feature","geometry":{"type":"Point","coordinates":[-118.175577,34.061342]},"properties":{"location_1_address":"1725 N Eastern Ave","website":"(323) 262-5511",":@computed_region_x8wy_s94z":"24028","location_1_city":"Los Angeles","location_1_state":"CA","location_1_zip":"90032","bookstore":"Student Books","phone":"Los Angeles"}},{"type":"Feature","geometry":{"type":"Point","coordinates":[-118.348606,34.083527]},"properties":{"location_1_address":"7301 Melrose Ave","website":"(323) 934-3373",":@computed_region_x8wy_s94z":"23667","location_1_city":"Los Angeles","location_1_state":"CA","location_1_zip":"90046","bookstore":"Melrose Music & Comics","phone":"Los Angeles"}},{"type":"Feature","geometry":{"type":"Point","coordinates":[-117.865462,34.136775]},"properties":{"location_1_address":"125 N. Glendora Ave","website":"(626) 335-5720",":@computed_region_x8wy_s94z":"9322","location_1_city":"Glendora","location_1_state":"CA","location_1_zip":"91741","bookstore":"Village Book Shop","phone":"Glendora"}},{"type":"Feature","geometry":{"type":"Point","coordinates":[-118.20157,34.139549]},"properties":{"location_1_address":"1613 Colorado Blvd","website":"(323) 258-2300",":@computed_region_x8wy_s94z":"23672","location_1_city":"Los Angeles","location_1_state":"CA","location_1_zip":"90041","bookstore":"Comics v Toys","phone":"Los Angeles"}},{"type":"Feature","geometry":{"type":"Point","coordinates":[-118.190802,33.800747]},"properties":{"location_1_address":"217 E Burnett St","website":null,":@computed_region_x8wy_s94z":"4018","location_1_city":"Long Beach","location_1_state":"CA","location_1_zip":"90806","bookstore":"Jiu Jit Notes","phone":"Long Beach"}},{"type":"Feature","geometry":{"type":"Point","coordinates":[-118.191523,33.781861]},"properties":{"location_1_address":"1231 Locust Ave","website":null,":@computed_region_x8wy_s94z":"4026","location_1_city":"Long Beach","location_1_state":"CA","location_1_zip":"90813","bookstore":"Libreria Cristiana Salem","phone":"Long Beach"}},{"type":"Feature","geometry":{"type":"Point","coordinates":[-118.353489,34.062357]},"properties":{"location_1_address":"5700 Wilshire Blvd","website":null,":@computed_region_x8wy_s94z":"23667","location_1_city":"Los Angeles","location_1_state":"CA","location_1_zip":"90036","bookstore":"Hollywood Reporter","phone":"Los Angeles"}},{"type":"Feature","geometry":{"type":"Point","coordinates":[-118.394504,34.055243]},"properties":{"location_1_address":"9400 W Pico Blvd","website":null,":@computed_region_x8wy_s94z":"23666","location_1_city":"Los Angeles","location_1_state":"CA","location_1_zip":"90035","bookstore":"Mitzvah Store","phone":"Los Angeles"}},{"type":"Feature","geometry":{"type":"Point","coordinates":[-118.387504,34.055268]},"properties":{"location_1_address":"8971 W Pico Blvd","website":null,":@computed_region_x8wy_s94z":"23666","location_1_city":"Los Angeles","location_1_state":"CA","location_1_zip":"90035","bookstore":"Pico Bookstore& Judaica Center","phone":"Los Angeles"}},{"type":"Feature","geometry":{"type":"Point","coordinates":[-117.886604,34.086302]},"properties":{"location_1_address":"235 E Badillo St","website":null,":@computed_region_x8wy_s94z":"9305","location_1_city":"Covina","location_1_state":"CA","location_1_zip":"91723","bookstore":"Thematic Attic","phone":"Covina"}},{"type":"Feature","geometry":{"type":"Point","coordinates":[-118.49926,34.018346]},"properties":{"location_1_address":"1201 3rd St","website":"(310) 260-9110",":@computed_region_x8wy_s94z":"25426","location_1_city":"Santa Monica","location_1_state":"CA","location_1_zip":"90401","bookstore":"Barnes & Noble","phone":"Santa Monica"}},{"type":"Feature","geometry":{"type":"Point","coordinates":[-118.236455,34.065901]},"properties":{"location_1_address":"970 N Broadway","website":"(213) 617-2817",":@computed_region_x8wy_s94z":"22728","location_1_city":"Los Angeles","location_1_state":"CA","location_1_zip":"90012","bookstore":"Great Wall","phone":"Los Angeles"}},{"type":"Feature","geometry":{"type":"Point","coordinates":[-118.356174,34.172706]},"properties":{"location_1_address":"4213 West Burbank Blvd","website":"(818) 556-6660",":@computed_region_x8wy_s94z":"20150","location_1_city":"Burbank","location_1_state":"CA","location_1_zip":"91505","bookstore":"Dark Delicacies","phone":"Burbank"}},{"type":"Feature","geometry":{"type":"Point","coordinates":[-118.439397,34.284694]},"properties":{"location_1_address":"120 N Maclay Ave","website":null,":@computed_region_x8wy_s94z":"18910","location_1_city":"San Fernando","location_1_state":"CA","location_1_zip":"91340","bookstore":"Mystic's Altar","phone":"San Fernando"}},{"type":"Feature","geometry":{"type":"Point","coordinates":[-117.750098,34.056625]},"properties":{"location_1_address":"322 S Garey Ave","website":null,":@computed_region_x8wy_s94z":"10125","location_1_city":"Pomona","location_1_state":"CA","location_1_zip":"91766","bookstore":"Upper Room Christian Bookstore","phone":"Pomona"}},{"type":"Feature","geometry":{"type":"Point","coordinates":[-118.462258,34.04832]},"properties":{"location_1_address":"11766 Wilshire Blvd Ste 260","website":null,":@computed_region_x8wy_s94z":"23443","location_1_city":"Los Angeles","location_1_state":"CA","location_1_zip":"90025","bookstore":"Midwest Living","phone":"Los Angeles"}},{"type":"Feature","geometry":{"type":"Point","coordinates":[-118.238,34.065885]},"properties":{"location_1_address":"969 N Hill Street","website":null,":@computed_region_x8wy_s94z":"22728","location_1_city":"Los Angeles","location_1_state":"CA","location_1_zip":"90012","bookstore":"Niming Books Company","phone":"Los Angeles"}},{"type":"Feature","geometry":{"type":"Point","coordinates":[-118.562577,34.391765]},"properties":{"location_1_address":"25864 Tournament Rd","website":null,":@computed_region_x8wy_s94z":"19338","location_1_city":"Santa Clarita","location_1_state":"CA","location_1_zip":"91355","bookstore":"SCV Book Exchange","phone":"Santa Clarita"}},{"type":"Feature","geometry":{"type":"Point","coordinates":[-117.762235,34.112286]},"properties":{"location_1_address":"2298 Foothill Blvd","website":null,":@computed_region_x8wy_s94z":"9725","location_1_city":"La Verne","location_1_state":"CA","location_1_zip":"91750","bookstore":"Talking Book World","phone":"La Verne"}},{"type":"Feature","geometry":{"type":"Point","coordinates":[-118.448949,34.225607]},"properties":{"location_1_address":"8538 Van Nuys Blvd","website":null,":@computed_region_x8wy_s94z":"19730","location_1_city":"Panorama City","location_1_state":"CA","location_1_zip":"91402","bookstore":"Jesus Es El Senor","phone":"Panorama City"}},{"type":"Feature","geometry":{"type":"Point","coordinates":[-118.206896,34.060412]},"properties":{"location_1_address":"1969 Zonal Ave","website":"(323) 442-2674",":@computed_region_x8wy_s94z":"23450","location_1_city":"Los Angeles","location_1_state":"CA","location_1_zip":"90089","bookstore":"USC Medical Bookstore","phone":"Los Angeles"}},{"type":"Feature","geometry":{"type":"Point","coordinates":[-118.809185,34.021032]},"properties":{"location_1_address":"29169 Heathercliff Rd","website":null,":@computed_region_x8wy_s94z":"25063","location_1_city":"Malibu","location_1_state":"CA","location_1_zip":"90265","bookstore":"Bank of Books","phone":"Malibu"}},{"type":"Feature","geometry":{"type":"Point","coordinates":[-118.207533,34.03872]},"properties":{"location_1_address":"2717 E 4th St","website":null,":@computed_region_x8wy_s94z":"23450","location_1_city":"Los Angeles","location_1_state":"CA","location_1_zip":"90033","bookstore":"Teocintli","phone":"Los Angeles"}},{"type":"Feature","geometry":{"type":"Point","coordinates":[-118.160049,33.896692]},"properties":{"location_1_address":"15010 Paramount Blvd","website":null,":@computed_region_x8wy_s94z":"3339","location_1_city":"Paramount","location_1_state":"CA","location_1_zip":"90723","bookstore":"Leaders Book Store","phone":"Paramount"}},{"type":"Feature","geometry":{"type":"Point","coordinates":[-118.442973,34.282082]},"properties":{"location_1_address":"319 S MacLay Ave","website":null,":@computed_region_x8wy_s94z":"18910","location_1_city":"San Fernando","location_1_state":"CA","location_1_zip":"91340","bookstore":"Libreria Mexico San Fernando","phone":"San Fernando"}},{"type":"Feature","geometry":{"type":"Point","coordinates":[-118.351876,33.959725]},"properties":{"location_1_address":"344 S Market Street","website":null,":@computed_region_x8wy_s94z":"25421","location_1_city":"Inglewood","location_1_state":"CA","location_1_zip":"90301","bookstore":"Judah Box","phone":"Inglewood"}},{"type":"Feature","geometry":{"type":"Point","coordinates":[-118.299072,34.061756]},"properties":{"location_1_address":"3440 Wilshire Blvd","website":null,":@computed_region_x8wy_s94z":"22726","location_1_city":"Los Angeles","location_1_state":"CA","location_1_zip":"90010","bookstore":"Claudia Leal & Associates","phone":"Los Angeles"}},{"type":"Feature","geometry":{"type":"Point","coordinates":[-118.010992,33.94305]},"properties":{"location_1_address":"10203 Colima Rd","website":null,":@computed_region_x8wy_s94z":"25723","location_1_city":"Whittier","location_1_state":"CA","location_1_zip":"90603","bookstore":"Bag & Board Comics","phone":"Whittier"}},{"type":"Feature","geometry":{"type":"Point","coordinates":[-118.377494,34.07605]},"properties":{"location_1_address":"8500 Beverly Blvd","website":null,":@computed_region_x8wy_s94z":"23679","location_1_city":"Los Angeles","location_1_state":"CA","location_1_zip":"90048","bookstore":"Go!  Calendars, Games, Toys, & Books","phone":"Los Angeles"}},{"type":"Feature","geometry":{"type":"Point","coordinates":[-117.747064,34.057912]},"properties":{"location_1_address":"395 E 2nd St","website":null,":@computed_region_x8wy_s94z":"10125","location_1_city":"Pomona","location_1_state":"CA","location_1_zip":"91766","bookstore":"Western University Bookstore","phone":"Pomona"}},{"type":"Feature","geometry":{"type":"Point","coordinates":[-118.291544,34.007824]},"properties":{"location_1_address":"4170 S Vermont Avenue","website":null,":@computed_region_x8wy_s94z":"23668","location_1_city":"Los Angeles","location_1_state":"CA","location_1_zip":"90037","bookstore":"Rosa De Saron Libreria Christiana","phone":"Los Angeles"}},{"type":"Feature","geometry":{"type":"Point","coordinates":[-118.154334,34.115762]},"properties":{"location_1_address":"1118 Mission St.","website":"(626) 799-9600 / (800) 4BOOKEM",":@computed_region_x8wy_s94z":"3220","location_1_city":"South Pasadena","location_1_state":"CA","location_1_zip":"91030","bookstore":"Book'em Mysteries Book Store","phone":"South Pasadena"}},{"type":"Feature","geometry":{"type":"Point","coordinates":[-118.095733,33.887504]},"properties":{"location_1_address":"11190 Alondra Blvd","website":null,":@computed_region_x8wy_s94z":"25734","location_1_city":"Norwalk","location_1_state":"CA","location_1_zip":"90650","bookstore":"Cerritos College Bookstore","phone":"Norwalk"}},{"type":"Feature","geometry":{"type":"Point","coordinates":[-118.131994,33.939561]},"properties":{"location_1_address":"8337 Firestone Boulevard","website":null,":@computed_region_x8wy_s94z":"24681","location_1_city":"Downey","location_1_state":"CA","location_1_zip":"90241","bookstore":"Judah Christian Book Store","phone":"Downey"}},{"type":"Feature","geometry":{"type":"Point","coordinates":[-117.866781,34.138351]},"properties":{"location_1_address":"181 N Vermont Ave","website":null,":@computed_region_x8wy_s94z":"9322","location_1_city":"Glendora","location_1_state":"CA","location_1_zip":"91741","bookstore":"Leonard's Guide","phone":"Glendora"}},{"type":"Feature","geometry":{"type":"Point","coordinates":[-118.136904,34.025302]},"properties":{"location_1_address":"3108 Via San Carlo","website":null,":@computed_region_x8wy_s94z":"25733","location_1_city":"Montebello","location_1_state":"CA","location_1_zip":"90640","bookstore":"Casa Blanca Press","phone":"Montebello"}},{"type":"Feature","geometry":{"type":"Point","coordinates":[-118.075199,33.909072]},"properties":{"location_1_address":"12116 Firestone Blvd","website":null,":@computed_region_x8wy_s94z":"25734","location_1_city":"Norwalk","location_1_state":"CA","location_1_zip":"90650","bookstore":"La Senda Antigua","phone":"Norwalk"}},{"type":"Feature","geometry":{"type":"Point","coordinates":[-118.265378,34.069378]},"properties":{"location_1_address":"1822 W Temple St","website":"(213) 483-3082",":@computed_region_x8wy_s94z":"23444","location_1_city":"Los Angeles","location_1_state":"CA","location_1_zip":"90026","bookstore":"Hidden Treasure","phone":"Los Angeles"}},{"type":"Feature","geometry":{"type":"Point","coordinates":[-118.214165,34.138522]},"properties":{"location_1_address":"5052 Eagle Rock Blvd","website":"(323) 257-2512",":@computed_region_x8wy_s94z":"23672","location_1_city":"Los Angeles","location_1_state":"CA","location_1_zip":"90041","bookstore":"IMIX Bookstore","phone":"Los Angeles"}},{"type":"Feature","geometry":{"type":"Point","coordinates":[-117.983702,33.931939]},"properties":{"location_1_address":"16241 Leffingwell Rd","website":null,":@computed_region_x8wy_s94z":"25723","location_1_city":"Whittier","location_1_state":"CA","location_1_zip":"90603","bookstore":"Chapel Store","phone":"Whittier"}},{"type":"Feature","geometry":{"type":"Point","coordinates":[-118.214384,34.126538]},"properties":{"location_1_address":"1600 Campus Rd","website":null,":@computed_region_x8wy_s94z":"23672","location_1_city":"Los Angeles","location_1_state":"CA","location_1_zip":"90041","bookstore":"Occidental College Bookstore","phone":"Los Angeles"}},{"type":"Feature","geometry":{"type":"Point","coordinates":[-117.718737,34.096611]},"properties":{"location_1_address":"330 W Bonita Ave","website":null,":@computed_region_x8wy_s94z":"8900","location_1_city":"Claremont","location_1_state":"CA","location_1_zip":"91711","bookstore":"Video Paradiso","phone":"Claremont"}},{"type":"Feature","geometry":{"type":"Point","coordinates":[-118.010927,33.881602]},"properties":{"location_1_address":"15020 Desman Rd","website":null,":@computed_region_x8wy_s94z":"25732","location_1_city":"Whittier","location_1_state":"CA","location_1_zip":"90601","bookstore":"Cogan Books","phone":"Whittier"}},{"type":"Feature","geometry":{"type":"Point","coordinates":[-117.967119,34.084672]},"properties":{"location_1_address":"14038 Ramona Blvd","website":null,":@computed_region_x8wy_s94z":"8895","location_1_city":"Baldwin Park","location_1_state":"CA","location_1_zip":"91706","bookstore":"Aurora's Christian Bookstore","phone":"Baldwin Park"}},{"type":"Feature","geometry":{"type":"Point","coordinates":[-118.159471,33.765602]},"properties":{"location_1_address":"2746 E Broadway","website":null,":@computed_region_x8wy_s94z":"3709","location_1_city":"Long Beach","location_1_state":"CA","location_1_zip":"90803","bookstore":"District","phone":"Long Beach"}},{"type":"Feature","geometry":{"type":"Point","coordinates":[-118.34973,34.048011]},"properties":{"location_1_address":"5111 W Pico Blvd","website":null,":@computed_region_x8wy_s94z":"23080","location_1_city":"Los Angeles","location_1_state":"CA","location_1_zip":"90019","bookstore":"33third Los Angeles","phone":"Los Angeles"}},{"type":"Feature","geometry":{"type":"Point","coordinates":[-118.334071,33.945407]},"properties":{"location_1_address":"3550 W Century Blvd","website":null,":@computed_region_x8wy_s94z":"25423","location_1_city":"Inglewood","location_1_state":"CA","location_1_zip":"90303","bookstore":"GameStop","phone":"Inglewood"}},{"type":"Feature","geometry":{"type":"Point","coordinates":[-118.210059,34.659621]},"properties":{"location_1_address":"42741 45th St W","website":null,":@computed_region_x8wy_s94z":"26967","location_1_city":"Lancaster","location_1_state":"CA","location_1_zip":"93536","bookstore":"Keep It In the Light","phone":"Lancaster"}},{"type":"Feature","geometry":{"type":"Point","coordinates":[-118.399817,33.943214]},"properties":{"location_1_address":"700 World Way","website":null,":@computed_region_x8wy_s94z":"23676","location_1_city":"Los Angeles","location_1_state":"CA","location_1_zip":"90045","bookstore":"Hudson News","phone":"Los Angeles"}},{"type":"Feature","geometry":{"type":"Point","coordinates":[-118.270449,34.048793]},"properties":{"location_1_address":"919 Albany St","website":"(213) 736-1032",":@computed_region_x8wy_s94z":"23076","location_1_city":"Los Angeles","location_1_state":"CA","location_1_zip":"90015","bookstore":"Loyola Law School Bookstore","phone":"Los Angeles"}},{"type":"Feature","geometry":{"type":"Point","coordinates":[-118.34923,34.083542]},"properties":{"location_1_address":"7314 Melrose Ave","website":null,":@computed_region_x8wy_s94z":"23667","location_1_city":"Los Angeles","location_1_state":"CA","location_1_zip":"90046","bookstore":"Romantix","phone":"Los Angeles"}},{"type":"Feature","geometry":{"type":"Point","coordinates":[-118.100337,34.178863]},"properties":{"location_1_address":"1904 Coolidge Ave","website":null,":@computed_region_x8wy_s94z":"2443","location_1_city":"Altadena","location_1_state":"CA","location_1_zip":"91001","bookstore":"Whitmore Rare Books","phone":"Altadena"}},{"type":"Feature","geometry":{"type":"Point","coordinates":[-118.282307,34.147361]},"properties":{"location_1_address":"4700 Western Heritage Way","website":"(323) 667-2000 ext 228",":@computed_region_x8wy_s94z":"23445","location_1_city":"Los Angeles","location_1_state":"CA","location_1_zip":"90027","bookstore":"Autry National Center, Museum of the American West Bookstore","phone":"Los Angeles"}},{"type":"Feature","geometry":{"type":"Point","coordinates":[-118.29148,33.978945]},"properties":{"location_1_address":"6618 S Vermont Avenue","website":null,":@computed_region_x8wy_s94z":"23675","location_1_city":"Los Angeles","location_1_state":"CA","location_1_zip":"90044","bookstore":"Libreria Cristiana Funte De Auga Viva","phone":"Los Angeles"}},{"type":"Feature","geometry":{"type":"Point","coordinates":[-117.78096,34.064055]},"properties":{"location_1_address":"1648 W Orange Grove Ave","website":null,":@computed_region_x8wy_s94z":"10130","location_1_city":"Pomona","location_1_state":"CA","location_1_zip":"91768","bookstore":"Mrs Nelson Book Fair Co","phone":"Pomona"}},{"type":"Feature","geometry":{"type":"Point","coordinates":[-118.331466,34.005008]},"properties":{"location_1_address":"4327 Degnan Blvd","website":"(323) 290-1048",":@computed_region_x8wy_s94z":"22725","location_1_city":"Los Angeles","location_1_state":"CA","location_1_zip":"90008","bookstore":"Eso Won Bookstore","phone":"Los Angeles"}},{"type":"Feature","geometry":{"type":"Point","coordinates":[-118.293775,34.063594]},"properties":{"location_1_address":"3251 W 6th St","website":null,":@computed_region_x8wy_s94z":"22726","location_1_city":"Los Angeles","location_1_state":"CA","location_1_zip":"90020","bookstore":"Omni Books-Science of Mind Publications","phone":"Los Angeles"}},{"type":"Feature","geometry":{"type":"Point","coordinates":[-118.350989,34.09076]},"properties":{"location_1_address":"7377 Santa Monica Blvd","website":"(323) 876-0202",":@computed_region_x8wy_s94z":"23677","location_1_city":"Los Angeles","location_1_state":"CA","location_1_zip":"90046","bookstore":"Los Angeles Audubon Society","phone":"Los Angeles"}},{"type":"Feature","geometry":{"type":"Point","coordinates":[-118.260077,34.118807]},"properties":{"location_1_address":"3307 Glendale Boulevard","website":null,":@computed_region_x8wy_s94z":"23670","location_1_city":"Los Angeles","location_1_state":"CA","location_1_zip":"90039","bookstore":"Atwater Christian Bookstore","phone":"Los Angeles"}},{"type":"Feature","geometry":{"type":"Point","coordinates":[-118.254425,34.049646]},"properties":{"location_1_address":"550 S Grand Ave","website":"(213) 626-9944",":@computed_region_x8wy_s94z":"23075","location_1_city":"Los Angeles","location_1_state":"CA","location_1_zip":"90071","bookstore":"Caravan","phone":"Los Angeles"}},{"type":"Feature","geometry":{"type":"Point","coordinates":[-118.131455,34.187327]},"properties":{"location_1_address":"2416 Lake Ave","website":null,":@computed_region_x8wy_s94z":"2443","location_1_city":"Altadena","location_1_state":"CA","location_1_zip":"91001","bookstore":"Theosophical Society Library Center","phone":"Altadena"}},{"type":"Feature","geometry":{"type":"Point","coordinates":[-118.060429,34.106763]},"properties":{"location_1_address":"9611 Las Tunas Dr","website":null,":@computed_region_x8wy_s94z":"10139","location_1_city":"Temple City","location_1_state":"CA","location_1_zip":"91780","bookstore":"Sooyoo Inc","phone":"Temple City"}},{"type":"Feature","geometry":{"type":"Point","coordinates":[-118.099348,33.887618]},"properties":{"location_1_address":"11027 Alondra Blvd","website":null,":@computed_region_x8wy_s94z":"25734","location_1_city":"Norwalk","location_1_state":"CA","location_1_zip":"90650","bookstore":"Textbooks, Inc.","phone":"Norwalk"}},{"type":"Feature","geometry":{"type":"Point","coordinates":[-118.338107,34.090711]},"properties":{"location_1_address":"6775 Santa Monica Boulevard","website":null,":@computed_region_x8wy_s94z":"23669","location_1_city":"Los Angeles","location_1_state":"CA","location_1_zip":"90038","bookstore":"X-Spot No3","phone":"Los Angeles"}},{"type":"Feature","geometry":{"type":"Point","coordinates":[-118.091004,34.102772]},"properties":{"location_1_address":"135 S San Gabriel Blvd","website":null,":@computed_region_x8wy_s94z":"10137","location_1_city":"San Gabriel","location_1_state":"CA","location_1_zip":"91776","bookstore":"Kingstone BookstoreCo Inc","phone":"San Gabriel"}},{"type":"Feature","geometry":{"type":"Point","coordinates":[-118.391833,33.977537]},"properties":{"location_1_address":"6081 Center Dr","website":null,":@computed_region_x8wy_s94z":"23676","location_1_city":"Los Angeles","location_1_state":"CA","location_1_zip":"90045","bookstore":"One Dollar Bookstore","phone":"Los Angeles"}},{"type":"Feature","geometry":{"type":"Point","coordinates":[-118.549441,34.416528]},"properties":{"location_1_address":"23630 Valencia Blvd","website":"(661) 254-6604",":@computed_region_x8wy_s94z":"19338","location_1_city":"Santa Clarita","location_1_state":"CA","location_1_zip":"91355","bookstore":"Barnes & Noble","phone":"Santa Clarita"}},{"type":"Feature","geometry":{"type":"Point","coordinates":[-118.221044,34.024821]},"properties":{"location_1_address":"2650 E Olympic Boulevard","website":null,":@computed_region_x8wy_s94z":"23441","location_1_city":"Los Angeles","location_1_state":"CA","location_1_zip":"90023","bookstore":"Sears Book Center","phone":"Los Angeles"}},{"type":"Feature","geometry":{"type":"Point","coordinates":[-118.445811,34.282498]},"properties":{"location_1_address":"1206 Hollister St","website":null,":@computed_region_x8wy_s94z":"18910","location_1_city":"San Fernando","location_1_state":"CA","location_1_zip":"91340","bookstore":"Libreria Cristo Vive","phone":"San Fernando"}},{"type":"Feature","geometry":{"type":"Point","coordinates":[-118.447909,34.045893]},"properties":{"location_1_address":"1650 Sawtelle Blvd","website":"(310) 473-4442",":@computed_region_x8wy_s94z":"23443","location_1_city":"Los Angeles","location_1_state":"CA","location_1_zip":"90025","bookstore":"Alias Books","phone":"Los Angeles"}},{"type":"Feature","geometry":{"type":"Point","coordinates":[-118.353343,34.098029]},"properties":{"location_1_address":"7522 Sunset Blvd","website":"(323) 851-7223",":@computed_region_x8wy_s94z":"23677","location_1_city":"Los Angeles","location_1_state":"CA","location_1_zip":"90046","bookstore":"Melt Comics","phone":"Los Angeles"}},{"type":"Feature","geometry":{"type":"Point","coordinates":[-118.278272,34.092758]},"properties":{"location_1_address":"1658 Griffith Park Blvd","website":"(323) 661-5052",":@computed_region_x8wy_s94z":"23444","location_1_city":"Los Angeles","location_1_state":"CA","location_1_zip":"90026","bookstore":"Black Ace","phone":"Los Angeles"}},{"type":"Feature","geometry":{"type":"Point","coordinates":[-118.251385,34.045501]},"properties":{"location_1_address":"634 S Spring St","website":"(213) 489-1900",":@computed_region_x8wy_s94z":"23075","location_1_city":"Los Angeles","location_1_state":"CA","location_1_zip":"90014","bookstore":"American Friends Service Committee","phone":"Los Angeles"}},{"type":"Feature","geometry":{"type":"Point","coordinates":[-118.103052,33.956125]},"properties":{"location_1_address":"9366 Telegraph Road","website":null,":@computed_region_x8wy_s94z":"24680","location_1_city":"Downey","location_1_state":"CA","location_1_zip":"90240","bookstore":"La Piramide Magica","phone":"Downey"}},{"type":"Feature","geometry":{"type":"Point","coordinates":[-118.259221,34.099847]},"properties":{"location_1_address":"2388 Glendale Blvd","website":null,":@computed_region_x8wy_s94z":"23670","location_1_city":"Los Angeles","location_1_state":"CA","location_1_zip":"90039","bookstore":"C M Bookshop In Silverlake","phone":"Los Angeles"}},{"type":"Feature","geometry":{"type":"Point","coordinates":[-118.261718,34.117243]},"properties":{"location_1_address":"3163 Glendale Blvd","website":null,":@computed_region_x8wy_s94z":"23670","location_1_city":"Los Angeles","location_1_state":"CA","location_1_zip":"90039","bookstore":"Alias Books East","phone":"Los Angeles"}},{"type":"Feature","geometry":{"type":"Point","coordinates":[-118.293775,34.063594]},"properties":{"location_1_address":"3251 W 6th St Ste 200","website":null,":@computed_region_x8wy_s94z":"22726","location_1_city":"Los Angeles","location_1_state":"CA","location_1_zip":"90020","bookstore":"Church of Religious Science United","phone":"Los Angeles"}},{"type":"Feature","geometry":{"type":"Point","coordinates":[-118.309062,34.05523]},"properties":{"location_1_address":"928 S Western Ave Ste 151","website":null,":@computed_region_x8wy_s94z":"22723","location_1_city":"Los Angeles","location_1_state":"CA","location_1_zip":"90006","bookstore":"Jeong Eum Korea Book Center","phone":"Los Angeles"}},{"type":"Feature","geometry":{"type":"Point","coordinates":[-118.19296,33.782605]},"properties":{"location_1_address":"122 W Anaheim St","website":null,":@computed_region_x8wy_s94z":"4026","location_1_city":"Long Beach","location_1_state":"CA","location_1_zip":"90813","bookstore":"Libreria Christiana Regocijate Y Canta","phone":"Long Beach"}},{"type":"Feature","geometry":{"type":"Point","coordinates":[-118.295688,34.063585]},"properties":{"location_1_address":"3400 W 6th St","website":null,":@computed_region_x8wy_s94z":"22722","location_1_city":"Los Angeles","location_1_state":"CA","location_1_zip":"90020","bookstore":"MBC Store","phone":"Los Angeles"}},{"type":"Feature","geometry":{"type":"Point","coordinates":[-118.06014,34.065656]},"properties":{"location_1_address":"3141 Chico Ave","website":null,":@computed_region_x8wy_s94z":"9314","location_1_city":"El Monte","location_1_state":"CA","location_1_zip":"91733","bookstore":"Ministerio Refugio Del Senor","phone":"El Monte"}},{"type":"Feature","geometry":{"type":"Point","coordinates":[-118.081763,33.862827]},"properties":{"location_1_address":"11806 186th St","website":null,":@computed_region_x8wy_s94z":"26323","location_1_city":"Artesia","location_1_state":"CA","location_1_zip":"90701","bookstore":"Books N Bits","phone":"Artesia"}},{"type":"Feature","geometry":{"type":"Point","coordinates":[-118.289319,34.061799]},"properties":{"location_1_address":"3108 Wilshire Boulevard","website":null,":@computed_region_x8wy_s94z":"22722","location_1_city":"Los Angeles","location_1_state":"CA","location_1_zip":"90010","bookstore":"Agape Christian Books","phone":"Los Angeles"}},{"type":"Feature","geometry":{"type":"Point","coordinates":[-118.406871,33.942619]},"properties":{"location_1_address":"400 World Way, Terminal 4","website":null,":@computed_region_x8wy_s94z":"23676","location_1_city":"Los Angeles","location_1_state":"CA","location_1_zip":"90045","bookstore":"Hudson News","phone":"Los Angeles"}},{"type":"Feature","geometry":{"type":"Point","coordinates":[-118.192352,33.764097]},"properties":{"location_1_address":"101 S Pine Ave","website":null,":@computed_region_x8wy_s94z":"3704","location_1_city":"Long Beach","location_1_state":"CA","location_1_zip":"90802","bookstore":"Piccolo's Bookstore","phone":"Long Beach"}},{"type":"Feature","geometry":{"type":"Point","coordinates":[-117.890154,34.087842]},"properties":{"location_1_address":"234 N Citrus Ave","website":null,":@computed_region_x8wy_s94z":"9305","location_1_city":"Covina","location_1_state":"CA","location_1_zip":"91723","bookstore":"Covina Book Store","phone":"Covina"}},{"type":"Feature","geometry":{"type":"Point","coordinates":[-118.328583,33.960871]},"properties":{"location_1_address":"3220 W 85th St","website":null,":@computed_region_x8wy_s94z":"25425","location_1_city":"Inglewood","location_1_state":"CA","location_1_zip":"90305","bookstore":"Whole Armour Bookstore","phone":"Inglewood"}},{"type":"Feature","geometry":{"type":"Point","coordinates":[-118.567511,34.407176]},"properties":{"location_1_address":"26455 Rockwell Canyon Rd","website":null,":@computed_region_x8wy_s94z":"19338","location_1_city":"Santa Clarita","location_1_state":"CA","location_1_zip":"91355","bookstore":"College Of  The Canyons Bookstore","phone":"Santa Clarita"}},{"type":"Feature","geometry":{"type":"Point","coordinates":[-118.141542,33.796068]},"properties":{"location_1_address":"4358 Stearns Street","website":null,":@computed_region_x8wy_s94z":"2439","location_1_city":"Long Beach","location_1_state":"CA","location_1_zip":"90815","bookstore":"Points of Light","phone":"Long Beach"}},{"type":"Feature","geometry":{"type":"Point","coordinates":[-118.250597,34.146329]},"properties":{"location_1_address":"415 E Broadway","website":null,":@computed_region_x8wy_s94z":"3634","location_1_city":"Glendale","location_1_state":"CA","location_1_zip":"91205","bookstore":"Abril Armenian Bookstore","phone":"Glendale"}},{"type":"Feature","geometry":{"type":"Point","coordinates":[-118.250393,34.053847]},"properties":{"location_1_address":"250 S Grand Ave","website":"(213) 626-6222",":@computed_region_x8wy_s94z":"22728","location_1_city":"Los Angeles","location_1_state":"CA","location_1_zip":"90012","bookstore":"MOCA Bookstore","phone":"Los Angeles"}},{"type":"Feature","geometry":{"type":"Point","coordinates":[-118.095563,33.968172]},"properties":{"location_1_address":"9449 Slauson Avenue","website":null,":@computed_region_x8wy_s94z":"25735","location_1_city":"Pico Rivera","location_1_state":"CA","location_1_zip":"90660","bookstore":"Friends of the Pico Rivera Libraries Book Center","phone":"Pico Rivera"}},{"type":"Feature","geometry":{"type":"Point","coordinates":[-118.325987,34.000036]},"properties":{"location_1_address":"3018 W 48th St","website":"(323) 295-9799",":@computed_region_x8wy_s94z":"23674","location_1_city":"Los Angeles","location_1_state":"CA","location_1_zip":"90043","bookstore":"University of Sankore Press","phone":"Los Angeles"}},{"type":"Feature","geometry":{"type":"Point","coordinates":[-118.391163,33.778528]},"properties":{"location_1_address":"28103 Ridgethorne Ct","website":null,":@computed_region_x8wy_s94z":"25068","location_1_city":"Rancho Palos Verdes","location_1_state":"CA","location_1_zip":"90275","bookstore":"Pacific Comic Exchange","phone":"Rancho Palos Verdes"}},{"type":"Feature","geometry":{"type":"Point","coordinates":[-118.190005,33.772634]},"properties":{"location_1_address":"200 E 5th St","website":null,":@computed_region_x8wy_s94z":"3704","location_1_city":"Long Beach","location_1_state":"CA","location_1_zip":"90802","bookstore":"One Dollar Bookstore","phone":"Long Beach"}},{"type":"Feature","geometry":{"type":"Point","coordinates":[-118.270329,34.047436]},"properties":{"location_1_address":"1324 W Olympic Blvd","website":"(213) 384-5009",":@computed_region_x8wy_s94z":"23076","location_1_city":"Los Angeles","location_1_state":"CA","location_1_zip":"90015","bookstore":"L a Law","phone":"Los Angeles"}},{"type":"Feature","geometry":{"type":"Point","coordinates":[-118.12523,33.794344]},"properties":{"location_1_address":"2086 Bellflower Blvd","website":null,":@computed_region_x8wy_s94z":"2439","location_1_city":"Long Beach","location_1_state":"CA","location_1_zip":"90815","bookstore":"Crown Books Liquidation Center","phone":"Long Beach"}},{"type":"Feature","geometry":{"type":"Point","coordinates":[-118.323657,34.080088]},"properties":{"location_1_address":"535 N Larchmont Blvd","website":null,":@computed_region_x8wy_s94z":"22721","location_1_city":"Los Angeles","location_1_state":"CA","location_1_zip":"90004","bookstore":"Dawson's Book Shop","phone":"Los Angeles"}},{"type":"Feature","geometry":{"type":"Point","coordinates":[-118.140392,33.889272]},"properties":{"location_1_address":"9104 Alondra Blvd","website":null,":@computed_region_x8wy_s94z":"26326","location_1_city":"Bellflower","location_1_state":"CA","location_1_zip":"90706","bookstore":"Green Bookstore","phone":"Bellflower"}},{"type":"Feature","geometry":{"type":"Point","coordinates":[-118.331031,34.002169]},"properties":{"location_1_address":"4514 Crenshaw Boulevard","website":null,":@computed_region_x8wy_s94z":"23674","location_1_city":"Los Angeles","location_1_state":"CA","location_1_zip":"90043","bookstore":"Pacific Books & Supplies","phone":"Los Angeles"}},{"type":"Feature","geometry":{"type":"Point","coordinates":[-118.446999,34.060818]},"properties":{"location_1_address":"1067 Gayley Ave","website":null,":@computed_region_x8wy_s94z":"23442","location_1_city":"Los Angeles","location_1_state":"CA","location_1_zip":"90024","bookstore":"Face Book Inc","phone":"Los Angeles"}},{"type":"Feature","geometry":{"type":"Point","coordinates":[-118.061106,34.107691]},"properties":{"location_1_address":"5930 Temple City Blvd","website":null,":@computed_region_x8wy_s94z":"10139","location_1_city":"Temple City","location_1_state":"CA","location_1_zip":"91780","bookstore":"Soyodo Bookstore","phone":"Temple City"}},{"type":"Feature","geometry":{"type":"Point","coordinates":[-118.187052,33.771711]},"properties":{"location_1_address":"420 E 4th St","website":null,":@computed_region_x8wy_s94z":"3704","location_1_city":"Long Beach","location_1_state":"CA","location_1_zip":"90802","bookstore":"Fingerprints Music","phone":"Long Beach"}},{"type":"Feature","geometry":{"type":"Point","coordinates":[-117.717902,34.09504]},"properties":{"location_1_address":"134 Yale Ave","website":null,":@computed_region_x8wy_s94z":"8900","location_1_city":"Claremont","location_1_state":"CA","location_1_zip":"91711","bookstore":"Buddhamouse Emproium","phone":"Claremont"}},{"type":"Feature","geometry":{"type":"Point","coordinates":[-118.133279,34.062396]},"properties":{"location_1_address":"760 W Garvey Ave","website":null,":@computed_region_x8wy_s94z":"9729","location_1_city":"Monterey Park","location_1_state":"CA","location_1_zip":"91754","bookstore":"Evergreen Books","phone":"Monterey Park"}},{"type":"Feature","geometry":{"type":"Point","coordinates":[-118.307231,34.057665]},"properties":{"location_1_address":"3526 W 8th St","website":"(213) 365-2665",":@computed_region_x8wy_s94z":"22722","location_1_city":"Los Angeles","location_1_state":"CA","location_1_zip":"90005","bookstore":"BookMart","phone":"Los Angeles"}},{"type":"Feature","geometry":{"type":"Point","coordinates":[-118.155776,33.764832]},"properties":{"location_1_address":"3064 E Broadway","website":null,":@computed_region_x8wy_s94z":"3709","location_1_city":"Long Beach","location_1_state":"CA","location_1_zip":"90803","bookstore":"Shore Books and Art Gallery","phone":"Long Beach"}},{"type":"Feature","geometry":{"type":"Point","coordinates":[-118.360102,34.071338]},"properties":{"location_1_address":"6333 W 3rd St","website":null,":@computed_region_x8wy_s94z":"23667","location_1_city":"Los Angeles","location_1_state":"CA","location_1_zip":"90036","bookstore":"Sheltams","phone":"Los Angeles"}},{"type":"Feature","geometry":{"type":"Point","coordinates":[-118.361453,34.079569]},"properties":{"location_1_address":"450 N Fairfax Ave","website":null,":@computed_region_x8wy_s94z":"23679","location_1_city":"Los Angeles","location_1_state":"CA","location_1_zip":"90036","bookstore":"Chabad Mid City Center","phone":"Los Angeles"}},{"type":"Feature","geometry":{"type":"Point","coordinates":[-118.187029,34.041086]},"properties":{"location_1_address":"419 N Rowan Ave","website":"(323) 526-1369",":@computed_region_x8wy_s94z":"24028","location_1_city":"Los Angeles","location_1_state":"CA","location_1_zip":"90063","bookstore":"Seite","phone":"Los Angeles"}},{"type":"Feature","geometry":{"type":"Point","coordinates":[-117.890147,34.087093]},"properties":{"location_1_address":"134 N Citrus Ave","website":null,":@computed_region_x8wy_s94z":"9305","location_1_city":"Covina","location_1_state":"CA","location_1_zip":"91723","bookstore":"Book Shop","phone":"Covina"}},{"type":"Feature","geometry":{"type":"Point","coordinates":[-118.11002,34.062488]},"properties":{"location_1_address":"912 E Garvey Ave","website":null,":@computed_region_x8wy_s94z":"9730","location_1_city":"Monterey Park","location_1_state":"CA","location_1_zip":"91755","bookstore":"Line Ching Bookstore","phone":"Monterey Park"}},{"type":"Feature","geometry":{"type":"Point","coordinates":[-117.973269,34.106499]},"properties":{"location_1_address":"13800 Live Oak Ave","website":null,":@computed_region_x8wy_s94z":"8895","location_1_city":"Baldwin Park","location_1_state":"CA","location_1_zip":"91706","bookstore":"Scholastic Book Fair","phone":"Baldwin Park"}},{"type":"Feature","geometry":{"type":"Point","coordinates":[-118.106775,34.122318]},"properties":{"location_1_address":"1455 San Marino Ave Ste A","website":null,":@computed_region_x8wy_s94z":"3238","location_1_city":"San Marino","location_1_state":"CA","location_1_zip":"91108","bookstore":"Dbc Book Store","phone":"San Marino"}},{"type":"Feature","geometry":{"type":"Point","coordinates":[-118.369391,34.07259]},"properties":{"location_1_address":"8242 W 3rd St # 230","website":"(323) 658-1901",":@computed_region_x8wy_s94z":"23679","location_1_city":"Los Angeles","location_1_state":"CA","location_1_zip":"90048","bookstore":"Michael R. Thompson Books","phone":"Los Angeles"}},{"type":"Feature","geometry":{"type":"Point","coordinates":[-118.406437,33.944921]},"properties":{"location_1_address":"300 World Way","website":null,":@computed_region_x8wy_s94z":"23676","location_1_city":"Los Angeles","location_1_state":"CA","location_1_zip":"90045","bookstore":"Hudson Booksellers","phone":"Los Angeles"}},{"type":"Feature","geometry":{"type":"Point","coordinates":[-117.943054,34.08456]},"properties":{"location_1_address":"1824 W El Dorado St","website":null,":@computed_region_x8wy_s94z":"10146","location_1_city":"West Covina","location_1_state":"CA","location_1_zip":"91790","bookstore":"Haarbauer Billy","phone":"West Covina"}},{"type":"Feature","geometry":{"type":"Point","coordinates":[-118.355452,34.062394]},"properties":{"location_1_address":"5814 Wilshire Blvd","website":"(323) 937-4230",":@computed_region_x8wy_s94z":"23667","location_1_city":"Los Angeles","location_1_state":"CA","location_1_zip":"90036","bookstore":"CAFAM Bookstore","phone":"Los Angeles"}},{"type":"Feature","geometry":{"type":"Point","coordinates":[-118.030169,34.140116]},"properties":{"location_1_address":"25 E Huntington Dr","website":null,":@computed_region_x8wy_s94z":"2445","location_1_city":"Arcadia","location_1_state":"CA","location_1_zip":"91006","bookstore":"Mediastar Book Store","phone":"Arcadia"}},{"type":"Feature","geometry":{"type":"Point","coordinates":[-118.156932,34.115754]},"properties":{"location_1_address":"1005B Mission St","website":null,":@computed_region_x8wy_s94z":"3220","location_1_city":"South Pasadena","location_1_state":"CA","location_1_zip":"91030","bookstore":"Battery Books & Music","phone":"South Pasadena"}},{"type":"Feature","geometry":{"type":"Point","coordinates":[-118.090964,34.099657]},"properties":{"location_1_address":"255 S San Gabriel Blvd","website":null,":@computed_region_x8wy_s94z":"10137","location_1_city":"San Gabriel","location_1_state":"CA","location_1_zip":"91776","bookstore":"Book Smart","phone":"San Gabriel"}},{"type":"Feature","geometry":{"type":"Point","coordinates":[-118.374797,34.083613]},"properties":{"location_1_address":"8445 Melrose Pl","website":"(323) 782-1888",":@computed_region_x8wy_s94z":"24034","location_1_city":"Los Angeles","location_1_state":"CA","location_1_zip":"90069","bookstore":"LEADAPRON","phone":"Los Angeles"}},{"type":"Feature","geometry":{"type":"Point","coordinates":[-118.214761,34.136515]},"properties":{"location_1_address":"4972 Eagle Rock Blvd","website":"(323) 259-9068",":@computed_region_x8wy_s94z":"23672","location_1_city":"Los Angeles","location_1_state":"CA","location_1_zip":"90041","bookstore":"Read","phone":"Los Angeles"}},{"type":"Feature","geometry":{"type":"Point","coordinates":[-118.193331,34.201353]},"properties":{"location_1_address":"643 Foothill Blvd","website":null,":@computed_region_x8wy_s94z":"2832","location_1_city":"La Cañada Flintridge","location_1_state":"CA","location_1_zip":"91011","bookstore":"Around The World Books","phone":"La Cañada Flintridge"}},{"type":"Feature","geometry":{"type":"Point","coordinates":[-117.936189,34.072715]},"properties":{"location_1_address":"1415 W Garvey Ave N","website":null,":@computed_region_x8wy_s94z":"10146","location_1_city":"West Covina","location_1_state":"CA","location_1_zip":"91790","bookstore":"United By The Cross Booksktore & Music","phone":"West Covina"}},{"type":"Feature","geometry":{"type":"Point","coordinates":[-118.118963,34.58433]},"properties":{"location_1_address":"38602 6th St E","website":null,":@computed_region_x8wy_s94z":"27323","location_1_city":"Palmdale","location_1_state":"CA","location_1_zip":"93550","bookstore":"Christian Book Club of America","phone":"Palmdale"}},{"type":"Feature","geometry":{"type":"Point","coordinates":[-118.219788,34.047614]},"properties":{"location_1_address":"1711 Mariachi Plaza De Los Angeles","website":"(323) 302-9408",":@computed_region_x8wy_s94z":"23450","location_1_city":"Los Angeles","location_1_state":"CA","location_1_zip":"90033","bookstore":"Libros Schmibros","phone":"Los Angeles"}},{"type":"Feature","geometry":{"type":"Point","coordinates":[-118.255468,34.051258]},"properties":{"location_1_address":"630 W 5th St","website":null,":@computed_region_x8wy_s94z":"24035","location_1_city":"Los Angeles","location_1_state":"CA","location_1_zip":"90071","bookstore":"Library Store","phone":"Los Angeles"}},{"type":"Feature","geometry":{"type":"Point","coordinates":[-118.299092,34.04721]},"properties":{"location_1_address":"2753 W Pico Blvd","website":"(323) 735-1344",":@computed_region_x8wy_s94z":"22723","location_1_city":"Los Angeles","location_1_state":"CA","location_1_zip":"90006","bookstore":"El Sembrador Ministries Bookstore","phone":"Los Angeles"}},{"type":"Feature","geometry":{"type":"Point","coordinates":[-118.239512,34.059987]},"properties":{"location_1_address":"652 N Broadway","website":null,":@computed_region_x8wy_s94z":"22728","location_1_city":"Los Angeles","location_1_state":"CA","location_1_zip":"90012","bookstore":"China Book Store","phone":"Los Angeles"}},{"type":"Feature","geometry":{"type":"Point","coordinates":[-118.347698,34.062364]},"properties":{"location_1_address":"5455 Wilshire Blvd","website":null,":@computed_region_x8wy_s94z":"23667","location_1_city":"Los Angeles","location_1_state":"CA","location_1_zip":"90036","bookstore":"Modern Luxury","phone":"Los Angeles"}},{"type":"Feature","geometry":{"type":"Point","coordinates":[-118.411767,34.05709]},"properties":{"location_1_address":"2132 Century Park Ln","website":null,":@computed_region_x8wy_s94z":"24032","location_1_city":"Los Angeles","location_1_state":"CA","location_1_zip":"90067","bookstore":"Biblioctopus","phone":"Los Angeles"}},{"type":"Feature","geometry":{"type":"Point","coordinates":[-118.144353,34.586016]},"properties":{"location_1_address":"842 W Palmdale Blvd","website":null,":@computed_region_x8wy_s94z":"27324","location_1_city":"Palmdale","location_1_state":"CA","location_1_zip":"93551","bookstore":"Li'l Book Bug, New & Used Books","phone":"Palmdale"}},{"type":"Feature","geometry":{"type":"Point","coordinates":[-118.428812,34.039981]},"properties":{"location_1_address":"10850 W Pico Blvd","website":null,":@computed_region_x8wy_s94z":"24029","location_1_city":"Los Angeles","location_1_state":"CA","location_1_zip":"90064","bookstore":"Barnes & Noble","phone":"Los Angeles"}},{"type":"Feature","geometry":{"type":"Point","coordinates":[-118.605084,34.090293]},"properties":{"location_1_address":"128 Old Topanga Cyn Rd","website":null,":@computed_region_x8wy_s94z":"25072","location_1_city":"Topanga","location_1_state":"CA","location_1_zip":"90290","bookstore":"Spiral Staircase the","phone":"Topanga"}},{"type":"Feature","geometry":{"type":"Point","coordinates":[-118.038596,33.980662]},"properties":{"location_1_address":"6703 Comstock Ave","website":null,":@computed_region_x8wy_s94z":"25721","location_1_city":"Whittier","location_1_state":"CA","location_1_zip":"90601","bookstore":"Friends of the Whittier Public Library","phone":"Whittier"}},{"type":"Feature","geometry":{"type":"Point","coordinates":[-118.686544,34.036818]},"properties":{"location_1_address":"23410 Civic Center Way","website":null,":@computed_region_x8wy_s94z":"25063","location_1_city":"Malibu","location_1_state":"CA","location_1_zip":"90265","bookstore":"Malibu Shaman","phone":"Malibu"}},{"type":"Feature","geometry":{"type":"Point","coordinates":[-118.396434,34.143462]},"properties":{"location_1_address":"12136 Ventura Blvd","website":"(818) 505-9528",":@computed_region_x8wy_s94z":"8492","location_1_city":"Studio City","location_1_state":"CA","location_1_zip":"91604","bookstore":"Barnes & Noble","phone":"Studio City"}},{"type":"Feature","geometry":{"type":"Point","coordinates":[-118.685425,34.035906]},"properties":{"location_1_address":"3890 Cross Creek Rd","website":"(310) 456-9961",":@computed_region_x8wy_s94z":"25063","location_1_city":"Malibu","location_1_state":"CA","location_1_zip":"90265","bookstore":"Diesel, A Bookstore","phone":"Malibu"}},{"type":"Feature","geometry":{"type":"Point","coordinates":[-118.567782,34.172044]},"properties":{"location_1_address":"19946 Ventura Blvd","website":null,":@computed_region_x8wy_s94z":"19346","location_1_city":"Los Angeles","location_1_state":"CA","location_1_zip":"91364","bookstore":"Tokyo Music","phone":"Los Angeles"}},{"type":"Feature","geometry":{"type":"Point","coordinates":[-118.113532,33.760425]},"properties":{"location_1_address":"6326 E Pacific Coast Hwy","website":"(562) 431-2253",":@computed_region_x8wy_s94z":"3709","location_1_city":"Long Beach","location_1_state":"CA","location_1_zip":"90803","bookstore":"Barnes & Noble","phone":"Long Beach"}},{"type":"Feature","geometry":{"type":"Point","coordinates":[-118.30911,34.068257]},"properties":{"location_1_address":"321 S Western Ave","website":null,":@computed_region_x8wy_s94z":"23081","location_1_city":"Los Angeles","location_1_state":"CA","location_1_zip":"90020","bookstore":"Happy Bookstore","phone":"Los Angeles"}},{"type":"Feature","geometry":{"type":"Point","coordinates":[-118.273923,33.974079]},"properties":{"location_1_address":"7223 S Main St","website":"(323) 758-2733",":@computed_region_x8wy_s94z":"22352","location_1_city":"Los Angeles","location_1_state":"CA","location_1_zip":"90003","bookstore":"Word of Life Christian Bookstore","phone":"Los Angeles"}},{"type":"Feature","geometry":{"type":"Point","coordinates":[-118.370121,34.072675]},"properties":{"location_1_address":"8303 W 3rd St","website":null,":@computed_region_x8wy_s94z":"23679","location_1_city":"Los Angeles","location_1_state":"CA","location_1_zip":"90048","bookstore":"OK","phone":"Los Angeles"}},{"type":"Feature","geometry":{"type":"Point","coordinates":[-118.102195,34.123157]},"properties":{"location_1_address":"2424 Huntington Dr","website":"(626) 309-0222",":@computed_region_x8wy_s94z":"3238","location_1_city":"San Marino","location_1_state":"CA","location_1_zip":"91108","bookstore":"San Marino Toy and Book Shoppe","phone":"San Marino"}},{"type":"Feature","geometry":{"type":"Point","coordinates":[-118.401072,33.945464]},"properties":{"location_1_address":"100 World Way","website":null,":@computed_region_x8wy_s94z":"23676","location_1_city":"Los Angeles","location_1_state":"CA","location_1_zip":"90045","bookstore":"Crews of California Satellite","phone":"Los Angeles"}},{"type":"Feature","geometry":{"type":"Point","coordinates":[-118.479825,34.083328]},"properties":{"location_1_address":"12001 Chalon Rd","website":"(310) 954-4322",":@computed_region_x8wy_s94z":"23680","location_1_city":"Los Angeles","location_1_state":"CA","location_1_zip":"90049","bookstore":"Mount St. Mary's College - Chalon Campus Bookstore","phone":"Los Angeles"}},{"type":"Feature","geometry":{"type":"Point","coordinates":[-117.810668,34.047322]},"properties":{"location_1_address":"3423 Pomona Blvd","website":null,":@computed_region_x8wy_s94z":"10130","location_1_city":"Pomona","location_1_state":"CA","location_1_zip":"91768","bookstore":"University Book Exchange","phone":"Pomona"}},{"type":"Feature","geometry":{"type":"Point","coordinates":[-118.293833,34.101762]},"properties":{"location_1_address":"4773 Hollywood Blvd","website":"(323) 666-9797",":@computed_region_x8wy_s94z":"23445","location_1_city":"Los Angeles","location_1_state":"CA","location_1_zip":"90027","bookstore":"Center for Inquiry Bookstore","phone":"Los Angeles"}},{"type":"Feature","geometry":{"type":"Point","coordinates":[-118.148064,34.694265]},"properties":{"location_1_address":"44622 10th St W","website":null,":@computed_region_x8wy_s94z":"26965","location_1_city":"Lancaster","location_1_state":"CA","location_1_zip":"93534","bookstore":"Family Christian Stores","phone":"Lancaster"}},{"type":"Feature","geometry":{"type":"Point","coordinates":[-118.32076,34.053861]},"properties":{"location_1_address":"4005 W Olympic Blvd","website":"(323) 934-1080",":@computed_region_x8wy_s94z":"23080","location_1_city":"Los Angeles","location_1_state":"CA","location_1_zip":"90019","bookstore":"iBookPark","phone":"Los Angeles"}},{"type":"Feature","geometry":{"type":"Point","coordinates":[-118.416689,34.000618]},"properties":{"location_1_address":"11527 W Washington Blvd","website":null,":@computed_region_x8wy_s94z":"24031","location_1_city":"Los Angeles","location_1_state":"CA","location_1_zip":"90066","bookstore":"Vagabond Books","phone":"Los Angeles"}},{"type":"Feature","geometry":{"type":"Point","coordinates":[-118.092633,34.080076]},"properties":{"location_1_address":"608 E Valley Blvd","website":null,":@computed_region_x8wy_s94z":"10137","location_1_city":"San Gabriel","location_1_state":"CA","location_1_zip":"91776","bookstore":"Cheng Pin Co","phone":"San Gabriel"}},{"type":"Feature","geometry":{"type":"Point","coordinates":[-118.330873,33.974045]},"properties":{"location_1_address":"7215 Crenshaw Boulevard","website":null,":@computed_region_x8wy_s94z":"23674","location_1_city":"Los Angeles","location_1_state":"CA","location_1_zip":"90043","bookstore":"Guiding Light Book Store","phone":"Los Angeles"}},{"type":"Feature","geometry":{"type":"Point","coordinates":[-118.277359,34.054654]},"properties":{"location_1_address":"2030 W 8th St","website":"(213) 382-0777",":@computed_region_x8wy_s94z":"24352","location_1_city":"Los Angeles","location_1_state":"CA","location_1_zip":"90057","bookstore":"Libreria Cristiana Ebenezer ","phone":"Los Angeles"}},{"type":"Feature","geometry":{"type":"Point","coordinates":[-118.247903,34.047347]},"properties":{"location_1_address":"440 S. Main St","website":"(213) 612-0174",":@computed_region_x8wy_s94z":"23074","location_1_city":"Los Angeles","location_1_state":"CA","location_1_zip":"90013","bookstore":"Metropolis Books","phone":"Los Angeles"}},{"type":"Feature","geometry":{"type":"Point","coordinates":[-118.294126,34.052647]},"properties":{"location_1_address":"2777 W Olympic Blvd","website":null,":@computed_region_x8wy_s94z":"22723","location_1_city":"Los Angeles","location_1_state":"CA","location_1_zip":"90006","bookstore":"Aladin Books LA","phone":"Los Angeles"}},{"type":"Feature","geometry":{"type":"Point","coordinates":[-118.30466,33.93089]},"properties":{"location_1_address":"1600 W Imperial Hwy","website":"(323) 241-5227",":@computed_region_x8wy_s94z":"23678","location_1_city":"Los Angeles","location_1_state":"CA","location_1_zip":"90047","bookstore":"LA Southwest College Bookstore","phone":"Los Angeles"}},{"type":"Feature","geometry":{"type":"Point","coordinates":[-118.187673,33.767678]},"properties":{"location_1_address":"62 Elm Ave","website":null,":@computed_region_x8wy_s94z":"3704","location_1_city":"Long Beach","location_1_state":"CA","location_1_zip":"90802","bookstore":"Mystic Moon Body Mind & Soul Metaphyscl Bks & Gfts","phone":"Long Beach"}},{"type":"Feature","geometry":{"type":"Point","coordinates":[-118.307894,34.069627]},"properties":{"location_1_address":"244 S Oxford Avenue","website":null,":@computed_region_x8wy_s94z":"22721","location_1_city":"Los Angeles","location_1_state":"CA","location_1_zip":"90004","bookstore":"Student Books","phone":"Los Angeles"}},{"type":"Feature","geometry":{"type":"Point","coordinates":[-118.163863,33.766887]},"properties":{"location_1_address":"237 Kennebec Ave Apt 1","website":null,":@computed_region_x8wy_s94z":"3709","location_1_city":"Long Beach","location_1_state":"CA","location_1_zip":"90803","bookstore":"Audio Books-Roberts","phone":"Long Beach"}},{"type":"Feature","geometry":{"type":"Point","coordinates":[-118.277359,34.054654]},"properties":{"location_1_address":"2030 W 8th Street","website":null,":@computed_region_x8wy_s94z":"24352","location_1_city":"Los Angeles","location_1_state":"CA","location_1_zip":"90057","bookstore":"Ebenezer Libreria Cristiana E Imprenta","phone":"Los Angeles"}},{"type":"Feature","geometry":{"type":"Point","coordinates":[-118.156858,34.678667]},"properties":{"location_1_address":"43793 15th St W","website":null,":@computed_region_x8wy_s94z":"26965","location_1_city":"Lancaster","location_1_state":"CA","location_1_zip":"93534","bookstore":"Parent Teacher Aids","phone":"Lancaster"}},{"type":"Feature","geometry":{"type":"Point","coordinates":[-118.277986,34.030062]},"properties":{"location_1_address":"10 Chester Pl","website":"(213) 477-2760",":@computed_region_x8wy_s94z":"22724","location_1_city":"Los Angeles","location_1_state":"CA","location_1_zip":"90007","bookstore":"Mount St. Mary's College - Doheny Campus Bookstore","phone":"Los Angeles"}},{"type":"Feature","geometry":{"type":"Point","coordinates":[-118.686544,34.036818]},"properties":{"location_1_address":"23410 Civic Center Way","website":null,":@computed_region_x8wy_s94z":"25063","location_1_city":"Malibu","location_1_state":"CA","location_1_zip":"90265","bookstore":"Diesel, A Bookstore","phone":"Malibu"}},{"type":"Feature","geometry":{"type":"Point","coordinates":[-118.152959,34.145756]},"properties":{"location_1_address":"111 W Colorado Blvd","website":"(626) 585-0362",":@computed_region_x8wy_s94z":"3233","location_1_city":"Pasadena","location_1_state":"CA","location_1_zip":"91105","bookstore":"Barnes & Noble","phone":"Pasadena"}},{"type":"Feature","geometry":{"type":"Point","coordinates":[-118.356312,34.071102]},"properties":{"location_1_address":"189 The Grove Dr","website":"(323) 525-0270",":@computed_region_x8wy_s94z":"23667","location_1_city":"Los Angeles","location_1_state":"CA","location_1_zip":"90036","bookstore":"Barnes & Noble","phone":"Los Angeles"}},{"type":"Feature","geometry":{"type":"Point","coordinates":[-118.161951,34.047089]},"properties":{"location_1_address":"1398 Monterey Pass Rd","website":null,":@computed_region_x8wy_s94z":"9729","location_1_city":"Monterey Park","location_1_state":"CA","location_1_zip":"91754","bookstore":"Chinese Bookstore","phone":"Monterey Park"}},{"type":"Feature","geometry":{"type":"Point","coordinates":[-118.148882,34.145379]},"properties":{"location_1_address":"20 S Raymond Ave","website":null,":@computed_region_x8wy_s94z":"3233","location_1_city":"Pasadena","location_1_state":"CA","location_1_zip":"91105","bookstore":"Distant Lands","phone":"Pasadena"}},{"type":"Feature","geometry":{"type":"Point","coordinates":[-118.357831,34.06263]},"properties":{"location_1_address":"5905 Wilshire Blvd","website":"(323) 857-6146",":@computed_region_x8wy_s94z":"23667","location_1_city":"Los Angeles","location_1_state":"CA","location_1_zip":"90036","bookstore":"LACMA Bookstore","phone":"Los Angeles"}},{"type":"Feature","geometry":{"type":"Point","coordinates":[-118.37382,34.083625]},"properties":{"location_1_address":"8407 Melrose Pl","website":null,":@computed_region_x8wy_s94z":"24034","location_1_city":"Los Angeles","location_1_state":"CA","location_1_zip":"90069","bookstore":"Marc Jacobs Bookmarc","phone":"Los Angeles"}},{"type":"Feature","geometry":{"type":"Point","coordinates":[-118.269048,34.088519]},"properties":{"location_1_address":"1618 Silverlake Blvd","website":null,":@computed_region_x8wy_s94z":"23444","location_1_city":"Los Angeles","location_1_state":"CA","location_1_zip":"90026","bookstore":"Ivanhoe Books","phone":"Los Angeles"}},{"type":"Feature","geometry":{"type":"Point","coordinates":[-118.39226,34.143355]},"properties":{"location_1_address":"11963 Ventura Blvd.","website":"(818) 762-0535",":@computed_region_x8wy_s94z":"8492","location_1_city":"Studio City","location_1_state":"CA","location_1_zip":"91604","bookstore":"Samuel French Theatre & Film","phone":"Studio City"}},{"type":"Feature","geometry":{"type":"Point","coordinates":[-118.233125,34.063688]},"properties":{"location_1_address":"1100 N Main Street","website":null,":@computed_region_x8wy_s94z":"22728","location_1_city":"Los Angeles","location_1_state":"CA","location_1_zip":"90012","bookstore":"Thai Books & Music-Dokya","phone":"Los Angeles"}},{"type":"Feature","geometry":{"type":"Point","coordinates":[-118.462478,34.037039]},"properties":{"location_1_address":"1615 Wellesley Avenue","website":null,":@computed_region_x8wy_s94z":"23443","location_1_city":"Los Angeles","location_1_state":"CA","location_1_zip":"90025","bookstore":"Bay City Books","phone":"Los Angeles"}},{"type":"Feature","geometry":{"type":"Point","coordinates":[-117.714929,34.086398]},"properties":{"location_1_address":"509 S College Ave","website":null,":@computed_region_x8wy_s94z":"8900","location_1_city":"Claremont","location_1_state":"CA","location_1_zip":"91711","bookstore":"Claremont Church of Religious Science","phone":"Claremont"}},{"type":"Feature","geometry":{"type":"Point","coordinates":[-118.192381,33.770762]},"properties":{"location_1_address":"309 Pine Ave","website":null,":@computed_region_x8wy_s94z":"3704","location_1_city":"Long Beach","location_1_state":"CA","location_1_zip":"90802","bookstore":"2000 Plus Bookstore","phone":"Long Beach"}},{"type":"Feature","geometry":{"type":"Point","coordinates":[-117.865483,34.133493]},"properties":{"location_1_address":"231 S Glendora Ave","website":null,":@computed_region_x8wy_s94z":"9322","location_1_city":"Glendora","location_1_state":"CA","location_1_zip":"91741","bookstore":"Mustard Seed Bookstore","phone":"Glendora"}},{"type":"Feature","geometry":{"type":"Point","coordinates":[-118.110342,34.010522]},"properties":{"location_1_address":"914 W Whittier Blvd","website":null,":@computed_region_x8wy_s94z":"25733","location_1_city":"Montebello","location_1_state":"CA","location_1_zip":"90640","bookstore":"Verbum Dei Bookstore","phone":"Montebello"}},{"type":"Feature","geometry":{"type":"Point","coordinates":[-118.278294,33.98602]},"properties":{"location_1_address":"5950 S Broadway","website":null,":@computed_region_x8wy_s94z":"22352","location_1_city":"Los Angeles","location_1_state":"CA","location_1_zip":"90003","bookstore":"Neely's Educational Materials and Supplies","phone":"Los Angeles"}},{"type":"Feature","geometry":{"type":"Point","coordinates":[-118.037362,33.97877]},"properties":{"location_1_address":"7007 Greenleaf Ave","website":null,":@computed_region_x8wy_s94z":"25722","location_1_city":"Whittier","location_1_state":"CA","location_1_zip":"90602","bookstore":"Dharma Center Bookstore","phone":"Whittier"}},{"type":"Feature","geometry":{"type":"Point","coordinates":[-117.810936,34.048048]},"properties":{"location_1_address":"3560 W Temple Ave","website":null,":@computed_region_x8wy_s94z":"10130","location_1_city":"Pomona","location_1_state":"CA","location_1_zip":"91768","bookstore":"Beat The Book Store","phone":"Pomona"}},{"type":"Feature","geometry":{"type":"Point","coordinates":[-118.314842,34.185237]},"properties":{"location_1_address":"731 N San Fernando Blvd","website":"(818) 558-1383",":@computed_region_x8wy_s94z":"20146","location_1_city":"Burbank","location_1_state":"CA","location_1_zip":"91502","bookstore":"Barnes & Noble","phone":"Burbank"}},{"type":"Feature","geometry":{"type":"Point","coordinates":[-118.329532,34.101297]},"properties":{"location_1_address":"1652 N Cahuenga Blvd","website":null,":@computed_region_x8wy_s94z":"23446","location_1_city":"Los Angeles","location_1_state":"CA","location_1_zip":"90028","bookstore":"World Book and News","phone":"Los Angeles"}},{"type":"Feature","geometry":{"type":"Point","coordinates":[-118.122838,34.063296]},"properties":{"location_1_address":"127 N Garfield Ave","website":null,":@computed_region_x8wy_s94z":"9730","location_1_city":"Monterey Park","location_1_state":"CA","location_1_zip":"91754","bookstore":"New World Book Company","phone":"Monterey Park"}},{"type":"Feature","geometry":{"type":"Point","coordinates":[-118.288456,34.065389]},"properties":{"location_1_address":"444 S Westmoreland Avenue","website":null,":@computed_region_x8wy_s94z":"23081","location_1_city":"Los Angeles","location_1_state":"CA","location_1_zip":"90020","bookstore":"Hani","phone":"Los Angeles"}},{"type":"Feature","geometry":{"type":"Point","coordinates":[-118.312818,34.061751]},"properties":{"location_1_address":"3959 Wilshire Blvd","website":"(213) 387-3184",":@computed_region_x8wy_s94z":"22722","location_1_city":"Los Angeles","location_1_state":"CA","location_1_zip":"90010","bookstore":"Educational Bookstores","phone":"Los Angeles"}},{"type":"Feature","geometry":{"type":"Point","coordinates":[-118.449496,34.226494]},"properties":{"location_1_address":"8610 Van Nuys Blvd","website":null,":@computed_region_x8wy_s94z":"19730","location_1_city":"Panorama City","location_1_state":"CA","location_1_zip":"91402","bookstore":"Aztec Books & Internet Lounge","phone":"Panorama City"}},{"type":"Feature","geometry":{"type":"Point","coordinates":[-118.141174,33.832846]},"properties":{"location_1_address":"4125 Norse Way","website":null,":@computed_region_x8wy_s94z":"4021","location_1_city":"Long Beach","location_1_state":"CA","location_1_zip":"90808","bookstore":"Cultura Latina Bookstore","phone":"Long Beach"}},{"type":"Feature","geometry":{"type":"Point","coordinates":[-118.306073,34.05768]},"properties":{"location_1_address":"3460 W 8th St","website":null,":@computed_region_x8wy_s94z":"22722","location_1_city":"Los Angeles","location_1_state":"CA","location_1_zip":"90005","bookstore":"Dong-A Book Plaza","phone":"Los Angeles"}},{"type":"Feature","geometry":{"type":"Point","coordinates":[-118.268821,34.031855]},"properties":{"location_1_address":"1937 S Grand Ave","website":"(213) 763-7210",":@computed_region_x8wy_s94z":"22724","location_1_city":"Los Angeles","location_1_state":"CA","location_1_zip":"90007","bookstore":"Los Angeles Trade Tech College Bookstore","phone":"Los Angeles"}},{"type":"Feature","geometry":{"type":"Point","coordinates":[-118.278903,34.091001]},"properties":{"location_1_address":"3817 W Sunset Blvd","website":"(323) 666-2228",":@computed_region_x8wy_s94z":"23444","location_1_city":"Los Angeles","location_1_state":"CA","location_1_zip":"90026","bookstore":"Secret Headquarters","phone":"Los Angeles"}},{"type":"Feature","geometry":{"type":"Point","coordinates":[-118.291627,34.056354]},"properties":{"location_1_address":"867 S Vermont Ave","website":null,":@computed_region_x8wy_s94z":"22722","location_1_city":"Los Angeles","location_1_state":"CA","location_1_zip":"90005","bookstore":"Libreria Cristiana La Rosa de Saron","phone":"Los Angeles"}},{"type":"Feature","geometry":{"type":"Point","coordinates":[-117.75217,34.07177]},"properties":{"location_1_address":"1411 N Garey Ave","website":null,":@computed_region_x8wy_s94z":"10130","location_1_city":"Pomona","location_1_state":"CA","location_1_zip":"91767","bookstore":"Fol Bookstore","phone":"Pomona"}},{"type":"Feature","geometry":{"type":"Point","coordinates":[-118.144383,34.67489]},"properties":{"location_1_address":"701 W Avenue K","website":null,":@computed_region_x8wy_s94z":"26965","location_1_city":"Lancaster","location_1_state":"CA","location_1_zip":"93534","bookstore":"Oly's Christian Shop","phone":"Lancaster"}},{"type":"Feature","geometry":{"type":"Point","coordinates":[-118.225472,34.20507]},"properties":{"location_1_address":"2207 Honolulu Avenue","website":"818-248-9668",":@computed_region_x8wy_s94z":"2839","location_1_city":"Glendale","location_1_state":"CA","location_1_zip":"91020","bookstore":"Once Upon a Time","phone":"Glendale"}},{"type":"Feature","geometry":{"type":"Point","coordinates":[-118.028155,34.09653]},"properties":{"location_1_address":"11017 W Hondo Pkwy","website":null,":@computed_region_x8wy_s94z":"10139","location_1_city":"Temple City","location_1_state":"CA","location_1_zip":"91780","bookstore":"Sungs Cultural Enterprise","phone":"Temple City"}},{"type":"Feature","geometry":{"type":"Point","coordinates":[-117.936258,34.057601]},"properties":{"location_1_address":"989 S Glendora Ave","website":null,":@computed_region_x8wy_s94z":"10146","location_1_city":"West Covina","location_1_state":"CA","location_1_zip":"91790","bookstore":"Evergreen Books of West Covina","phone":"West Covina"}},{"type":"Feature","geometry":{"type":"Point","coordinates":[-118.318502,34.105254]},"properties":{"location_1_address":"5911 Franklin Ave","website":"(323) 957-7965",":@computed_region_x8wy_s94z":"23446","location_1_city":"Hollywood","location_1_state":"CA","location_1_zip":"90028","bookstore":"Counterpoint Records & Books","phone":"Hollywood"}},{"type":"Feature","geometry":{"type":"Point","coordinates":[-118.802092,34.131827]},"properties":{"location_1_address":"3528 Triunfo Canyon Rd","website":null,":@computed_region_x8wy_s94z":"4276","location_1_city":"Agoura Hills","location_1_state":"CA","location_1_zip":"91301","bookstore":"Vedantic Center the","phone":"Agoura Hills"}},{"type":"Feature","geometry":{"type":"Point","coordinates":[-118.340164,34.013494]},"properties":{"location_1_address":"3800 W Martin Luther King J","website":null,":@computed_region_x8wy_s94z":"22725","location_1_city":"Los Angeles","location_1_state":"CA","location_1_zip":"90008","bookstore":"Maranatha Bookstore","phone":"Los Angeles"}},{"type":"Feature","geometry":{"type":"Point","coordinates":[-118.237637,34.066576]},"properties":{"location_1_address":"988 N Hill St","website":null,":@computed_region_x8wy_s94z":"22728","location_1_city":"Los Angeles","location_1_state":"CA","location_1_zip":"90012","bookstore":"Neotype Station","phone":"Los Angeles"}},{"type":"Feature","geometry":{"type":"Point","coordinates":[-118.205246,34.12117]},"properties":{"location_1_address":"5050 York Blvd","website":null,":@computed_region_x8wy_s94z":"23673","location_1_city":"Los Angeles","location_1_state":"CA","location_1_zip":"90042","bookstore":"La Vida Loca galería","phone":"Los Angeles"}},{"type":"Feature","geometry":{"type":"Point","coordinates":[-118.319219,34.105252]},"properties":{"location_1_address":"5931 Franklin Ave","website":"(323) 957-0061",":@computed_region_x8wy_s94z":"23446","location_1_city":"Los Angeles","location_1_state":"CA","location_1_zip":"90028","bookstore":"Daily Planet","phone":"Los Angeles"}},{"type":"Feature","geometry":{"type":"Point","coordinates":[-118.083652,33.826924]},"properties":{"location_1_address":"7651 Carson Blvd","website":null,":@computed_region_x8wy_s94z":"4021","location_1_city":"Long Beach","location_1_state":"CA","location_1_zip":"90808","bookstore":"Barnes & Noble","phone":"Long Beach"}},{"type":"Feature","geometry":{"type":"Point","coordinates":[-118.335203,33.982109]},"properties":{"location_1_address":"6321 West Blvd","website":null,":@computed_region_x8wy_s94z":"23674","location_1_city":"Los Angeles","location_1_state":"CA","location_1_zip":"90043","bookstore":"Word of Life Christian Book Store","phone":"Los Angeles"}},{"type":"Feature","geometry":{"type":"Point","coordinates":[-118.343327,34.083434]},"properties":{"location_1_address":"7017 Melrose Ave","website":null,":@computed_region_x8wy_s94z":"23667","location_1_city":"Los Angeles","location_1_state":"CA","location_1_zip":"90038","bookstore":"Cosmopolitan Book Shop","phone":"Los Angeles"}},{"type":"Feature","geometry":{"type":"Point","coordinates":[-118.036233,34.022178]},"properties":{"location_1_address":"3323 Workman Mill Rd","website":null,":@computed_region_x8wy_s94z":"25721","location_1_city":"Whittier","location_1_state":"CA","location_1_zip":"90601","bookstore":"Bookmart & Copy Center","phone":"Whittier"}},{"type":"Feature","geometry":{"type":"Point","coordinates":[-117.727721,34.062946]},"properties":{"location_1_address":"1151 E Holt Ave","website":null,":@computed_region_x8wy_s94z":"10128","location_1_city":"Pomona","location_1_state":"CA","location_1_zip":"91767","bookstore":"Trong Dong Bookstore","phone":"Pomona"}},{"type":"Feature","geometry":{"type":"Point","coordinates":[-118.122329,34.062576]},"properties":{"location_1_address":"107 E Garvey Ave","website":null,":@computed_region_x8wy_s94z":"9730","location_1_city":"Monterey Park","location_1_state":"CA","location_1_zip":"91755","bookstore":"Monterey Books & Stationery","phone":"Monterey Park"}},{"type":"Feature","geometry":{"type":"Point","coordinates":[-118.448715,34.045573]},"properties":{"location_1_address":"11323 Idaho Ave","website":null,":@computed_region_x8wy_s94z":"23443","location_1_city":"Los Angeles","location_1_state":"CA","location_1_zip":"90025","bookstore":"Sideshow Rare Books, Art & Curiosities","phone":"Los Angeles"}},{"type":"Feature","geometry":{"type":"Point","coordinates":[-118.309694,34.101735]},"properties":{"location_1_address":"5507 Hollywood Blvd","website":null,":@computed_region_x8wy_s94z":"23446","location_1_city":"Los Angeles","location_1_state":"CA","location_1_zip":"90028","bookstore":"X Spot","phone":"Los Angeles"}},{"type":"Feature","geometry":{"type":"Point","coordinates":[-118.30281,34.101748]},"properties":{"location_1_address":"5178 Hollywood Blvd","website":null,":@computed_region_x8wy_s94z":"23445","location_1_city":"Los Angeles","location_1_state":"CA","location_1_zip":"90027","bookstore":"Siam Books Center","phone":"Los Angeles"}},{"type":"Feature","geometry":{"type":"Point","coordinates":[-118.295535,34.052636]},"properties":{"location_1_address":"2837 W Olympic Boulevard","website":null,":@computed_region_x8wy_s94z":"22723","location_1_city":"Los Angeles","location_1_state":"CA","location_1_zip":"90006","bookstore":"Sung Ji Book Center","phone":"Los Angeles"}},{"type":"Feature","geometry":{"type":"Point","coordinates":[-118.258576,34.077297]},"properties":{"location_1_address":"1716 Sunset Blvd.","website":"(213) 413-3733",":@computed_region_x8wy_s94z":"23444","location_1_city":"Los Angeles","location_1_state":"CA","location_1_zip":"90026","bookstore":"Stories Books & Cafe","phone":"Los Angeles"}},{"type":"Feature","geometry":{"type":"Point","coordinates":[-118.383977,34.090641]},"properties":{"location_1_address":"8826 W Sunset Blvd","website":"(310) 657-5557",":@computed_region_x8wy_s94z":"24034","location_1_city":"West Hollywood","location_1_state":"CA","location_1_zip":"90069","bookstore":"Mystery Pier Books","phone":"West Hollywood"}},{"type":"Feature","geometry":{"type":"Point","coordinates":[-118.446501,34.061834]},"properties":{"location_1_address":"1036-C Broxton Ave","website":"(310) 209-0415",":@computed_region_x8wy_s94z":"23442","location_1_city":"Los Angeles","location_1_state":"CA","location_1_zip":"90024","bookstore":"Mystery Bookstore","phone":"Los Angeles"}},{"type":"Feature","geometry":{"type":"Point","coordinates":[-118.138619,33.761803]},"properties":{"location_1_address":"4712 E 2nd St","website":null,":@computed_region_x8wy_s94z":"3709","location_1_city":"Long Beach","location_1_state":"CA","location_1_zip":"90803","bookstore":"Apostrophe Books","phone":"Long Beach"}},{"type":"Feature","geometry":{"type":"Point","coordinates":[-118.25533,34.044158]},"properties":{"location_1_address":"312 W 8th Street","website":"(213) 488-1303",":@computed_region_x8wy_s94z":"23075","location_1_city":"Los Angeles","location_1_state":"CA","location_1_zip":"90014","bookstore":"Libros Revolucion Bookstore","phone":"Los Angeles"}},{"type":"Feature","geometry":{"type":"Point","coordinates":[-118.254823,34.048428]},"properties":{"location_1_address":"521 W 6th St","website":null,":@computed_region_x8wy_s94z":"23075","location_1_city":"Los Angeles","location_1_state":"CA","location_1_zip":"90014","bookstore":"Thomas Bros Maps & Books","phone":"Los Angeles"}},{"type":"Feature","geometry":{"type":"Point","coordinates":[-118.135859,34.145886]},"properties":{"location_1_address":"695 E Colorado Blvd","website":"(626) 449-5320",":@computed_region_x8wy_s94z":"3224","location_1_city":"Pasadena","location_1_state":"CA","location_1_zip":"91101","bookstore":"Vroman’s Bookstore","phone":"Pasadena"}},{"type":"Feature","geometry":{"type":"Point","coordinates":[-118.442509,33.993089]},"properties":{"location_1_address":"13315 W Washington Blvd","website":null,":@computed_region_x8wy_s94z":"24031","location_1_city":"Los Angeles","location_1_state":"CA","location_1_zip":"90066","bookstore":"Tao Of Wellness Retail","phone":"Los Angeles"}},{"type":"Feature","geometry":{"type":"Point","coordinates":[-118.475861,34.077826]},"properties":{"location_1_address":"1200 Getty Center Dr #500","website":"(310) 440-7365",":@computed_region_x8wy_s94z":"23680","location_1_city":"Los Angeles","location_1_state":"CA","location_1_zip":"90049","bookstore":"Getty Center","phone":"Los Angeles"}},{"type":"Feature","geometry":{"type":"Point","coordinates":[-118.323636,34.074126]},"properties":{"location_1_address":"126 N Larchmont Blvd","website":"(323) 465-1334",":@computed_region_x8wy_s94z":"22721","location_1_city":"Los Angeles","location_1_state":"CA","location_1_zip":"90004","bookstore":"Chevalier's Books","phone":"Los Angeles"}},{"type":"Feature","geometry":{"type":"Point","coordinates":[-118.371733,34.086409]},"properties":{"location_1_address":"835 N Kings Rd","website":"(323) 651-1510",":@computed_region_x8wy_s94z":"24034","location_1_city":"West Hollywood","location_1_state":"CA","location_1_zip":"90069","bookstore":"Mak Center Bookstore","phone":"West Hollywood"}},{"type":"Feature","geometry":{"type":"Point","coordinates":[-118.383792,34.054155]},"properties":{"location_1_address":"1414 S Robertson Blvd","website":"(310) 858-1804",":@computed_region_x8wy_s94z":"23666","location_1_city":"Los Angeles","location_1_state":"CA","location_1_zip":"90035","bookstore":"Robertson Magazine & Books","phone":"Los Angeles"}},{"type":"Feature","geometry":{"type":"Point","coordinates":[-118.064667,34.068822]},"properties":{"location_1_address":"9386 Telstar Ave","website":null,":@computed_region_x8wy_s94z":"9311","location_1_city":"El Monte","location_1_state":"CA","location_1_zip":"91731","bookstore":"EFC Communication Center & Bookstore","phone":"El Monte"}},{"type":"Feature","geometry":{"type":"Point","coordinates":[-118.47443,33.987786]},"properties":{"location_1_address":"1407 Ocean Front Walk","website":"(310) 399-2360",":@computed_region_x8wy_s94z":"25073","location_1_city":"Los Angeles","location_1_state":"CA","location_1_zip":"90291","bookstore":"Small World Books","phone":"Los Angeles"}},{"type":"Feature","geometry":{"type":"Point","coordinates":[-117.750821,34.057827]},"properties":{"location_1_address":"155 W 2nd St","website":null,":@computed_region_x8wy_s94z":"10125","location_1_city":"Pomona","location_1_state":"CA","location_1_zip":"91766","bookstore":"Magic Door BookstoreIV","phone":"Pomona"}},{"type":"Feature","geometry":{"type":"Point","coordinates":[-118.338595,34.085856]},"properties":{"location_1_address":"830 N Highland Ave","website":null,":@computed_region_x8wy_s94z":"23669","location_1_city":"Los Angeles","location_1_state":"CA","location_1_zip":"90038","bookstore":"Berkelouw Book Dealer","phone":"Los Angeles"}},{"type":"Feature","geometry":{"type":"Point","coordinates":[-118.32364,34.07537]},"properties":{"location_1_address":"226 N Larchmont Blvd","website":null,":@computed_region_x8wy_s94z":"22721","location_1_city":"Los Angeles","location_1_state":"CA","location_1_zip":"90004","bookstore":"Above the Fold-Fairfax","phone":"Los Angeles"}},{"type":"Feature","geometry":{"type":"Point","coordinates":[-118.385307,34.080427]},"properties":{"location_1_address":"505 N Robertson Boulevard.","website":null,":@computed_region_x8wy_s94z":"24034","location_1_city":"Los Angeles","location_1_state":"CA","location_1_zip":"90048","bookstore":"LEADAPRON","phone":"Los Angeles"}},{"type":"Feature","geometry":{"type":"Point","coordinates":[-118.212642,34.13908]},"properties":{"location_1_address":"2120 Colorado Blvd","website":null,":@computed_region_x8wy_s94z":"23672","location_1_city":"Los Angeles","location_1_state":"CA","location_1_zip":"90041","bookstore":"F Art","phone":"Los Angeles"}},{"type":"Feature","geometry":{"type":"Point","coordinates":[-118.262463,34.116567]},"properties":{"location_1_address":"3139 Glendale Blvd","website":null,":@computed_region_x8wy_s94z":"23670","location_1_city":"Los Angeles","location_1_state":"CA","location_1_zip":"90039","bookstore":"Under the Table","phone":"Los Angeles"}},{"type":"Feature","geometry":{"type":"Point","coordinates":[-118.202594,34.12065]},"properties":{"location_1_address":"5159 York Blvd","website":null,":@computed_region_x8wy_s94z":"23673","location_1_city":"Los Angeles","location_1_state":"CA","location_1_zip":"90042","bookstore":"Mi Vida","phone":"Los Angeles"}},{"type":"Feature","geometry":{"type":"Point","coordinates":[-118.440278,33.987209]},"properties":{"location_1_address":"13400 Maxella Ave","website":"(310) 306-3213",":@computed_region_x8wy_s94z":"25074","location_1_city":"Marina Del Rey","location_1_state":"CA","location_1_zip":"90292","bookstore":"Barnes & Noble","phone":"Marina Del Rey"}},{"type":"Feature","geometry":{"type":"Point","coordinates":[-118.037368,33.980565]},"properties":{"location_1_address":"6708 Greenleaf Ave","website":null,":@computed_region_x8wy_s94z":"25721","location_1_city":"Whittier","location_1_state":"CA","location_1_zip":"90601","bookstore":"Half Off Books","phone":"Whittier"}},{"type":"Feature","geometry":{"type":"Point","coordinates":[-117.924822,33.990468]},"properties":{"location_1_address":"17490 Colima Rd","website":"(626) 854-1833",":@computed_region_x8wy_s94z":"9329","location_1_city":"Rowland Heights","location_1_state":"CA","location_1_zip":"91748","bookstore":"Barnes & Noble","phone":"Rowland Heights"}},{"type":"Feature","geometry":{"type":"Point","coordinates":[-118.359784,34.071291]},"properties":{"location_1_address":"6301 W 3rd St","website":null,":@computed_region_x8wy_s94z":"23667","location_1_city":"Los Angeles","location_1_state":"CA","location_1_zip":"90036","bookstore":"Barnes & Noble","phone":"Los Angeles"}},{"type":"Feature","geometry":{"type":"Point","coordinates":[-118.125221,33.879234]},"properties":{"location_1_address":"17045 Bellflower Blvd","website":null,":@computed_region_x8wy_s94z":"26326","location_1_city":"Bellflower","location_1_state":"CA","location_1_zip":"90706","bookstore":"Covenant Corner","phone":"Bellflower"}},{"type":"Feature","geometry":{"type":"Point","coordinates":[-117.788607,34.106484]},"properties":{"location_1_address":"1030 Bonita Ave","website":"(909) 599-4558",":@computed_region_x8wy_s94z":"9725","location_1_city":"La Verne","location_1_state":"CA","location_1_zip":"91750","bookstore":"Mrs. Nelson's Toy & Bookshop","phone":"La Verne"}},{"type":"Feature","geometry":{"type":"Point","coordinates":[-118.147623,34.036677]},"properties":{"location_1_address":"2334 S Atlantic Blvd","website":null,":@computed_region_x8wy_s94z":"9729","location_1_city":"Monterey Park","location_1_state":"CA","location_1_zip":"91754","bookstore":"Malaika Book Store Inc.","phone":"Monterey Park"}},{"type":"Feature","geometry":{"type":"Point","coordinates":[-118.186084,33.771712]},"properties":{"location_1_address":"505 E 4th St","website":null,":@computed_region_x8wy_s94z":"3704","location_1_city":"Long Beach","location_1_state":"CA","location_1_zip":"90802","bookstore":"Alabadle Christian Store","phone":"Long Beach"}},{"type":"Feature","geometry":{"type":"Point","coordinates":[-118.343395,34.083435]},"properties":{"location_1_address":"7018 Melrose Ave","website":"(323) 658-6047",":@computed_region_x8wy_s94z":"23667","location_1_city":"Los Angeles","location_1_state":"CA","location_1_zip":"90038","bookstore":"Golden Apple Comics","phone":"Los Angeles"}},{"type":"Feature","geometry":{"type":"Point","coordinates":[-118.452993,34.219741]},"properties":{"location_1_address":"14666 Titus St Ste 19","website":null,":@computed_region_x8wy_s94z":"19730","location_1_city":"Panorama City","location_1_state":"CA","location_1_zip":"91402","bookstore":"Ketab Corp","phone":"Panorama City"}},{"type":"Feature","geometry":{"type":"Point","coordinates":[-118.341765,34.103843]},"properties":{"location_1_address":"1782 N Orange Dr","website":"(323) 969-4333",":@computed_region_x8wy_s94z":"23446","location_1_city":"Los Angeles","location_1_state":"CA","location_1_zip":"90028","bookstore":"American Society of Cinematographers","phone":"Los Angeles"}},{"type":"Feature","geometry":{"type":"Point","coordinates":[-118.39218,34.055257]},"properties":{"location_1_address":"9225 W Pico Boulevard","website":null,":@computed_region_x8wy_s94z":"23666","location_1_city":"Los Angeles","location_1_state":"CA","location_1_zip":"90035","bookstore":"Solomon's David Book Store","phone":"Los Angeles"}},{"type":"Feature","geometry":{"type":"Point","coordinates":[-118.121435,34.062576]},"properties":{"location_1_address":"153 E Garvey Ave","website":null,":@computed_region_x8wy_s94z":"9730","location_1_city":"Monterey Park","location_1_state":"CA","location_1_zip":"91755","bookstore":"LA Books CO","phone":"Monterey Park"}},{"type":"Feature","geometry":{"type":"Point","coordinates":[-118.331321,34.097983]},"properties":{"location_1_address":"6464 W Sunset Blvd","website":null,":@computed_region_x8wy_s94z":"23446","location_1_city":"Los Angeles","location_1_state":"CA","location_1_zip":"90028","bookstore":"Whole Lifetimes","phone":"Los Angeles"}},{"type":"Feature","geometry":{"type":"Point","coordinates":[-118.361453,34.079487]},"properties":{"location_1_address":"447 N Fairfax Avenue","website":null,":@computed_region_x8wy_s94z":"23679","location_1_city":"Los Angeles","location_1_state":"CA","location_1_zip":"90036","bookstore":"Solomon's Hebrew & English Book Store","phone":"Los Angeles"}},{"type":"Feature","geometry":{"type":"Point","coordinates":[-118.223291,33.974026]},"properties":{"location_1_address":"2662 E Florence Ave","website":null,":@computed_region_x8wy_s94z":"24689","location_1_city":"Huntington Park","location_1_state":"CA","location_1_zip":"90255","bookstore":"Leadership Thru Books","phone":"Huntington Park"}},{"type":"Feature","geometry":{"type":"Point","coordinates":[-118.081065,34.03652]},"properties":{"location_1_address":"1711 Montebello Town Ctr","website":null,":@computed_region_x8wy_s94z":"25733","location_1_city":"Montebello","location_1_state":"CA","location_1_zip":"90640","bookstore":"Dollar Book Fair","phone":"Montebello"}},{"type":"Feature","geometry":{"type":"Point","coordinates":[-118.083652,33.826924]},"properties":{"location_1_address":"7651 Carson Blvd","website":"(562) 938-8330",":@computed_region_x8wy_s94z":"4021","location_1_city":"Long Beach","location_1_state":"CA","location_1_zip":"90808","bookstore":"Barnes & Noble","phone":"Long Beach"}},{"type":"Feature","geometry":{"type":"Point","coordinates":[-118.307787,34.052638]},"properties":{"location_1_address":"3250 W Olympic Boulevard","website":null,":@computed_region_x8wy_s94z":"22723","location_1_city":"Los Angeles","location_1_state":"CA","location_1_zip":"90006","bookstore":"Seojong Bookstore","phone":"Los Angeles"}},{"type":"Feature","geometry":{"type":"Point","coordinates":[-118.239035,34.060902]},"properties":{"location_1_address":"714 N Broadway","website":null,":@computed_region_x8wy_s94z":"22728","location_1_city":"Los Angeles","location_1_state":"CA","location_1_zip":"90012","bookstore":"Shin Hwa Book Store","phone":"Los Angeles"}},{"type":"Feature","geometry":{"type":"Point","coordinates":[-118.193382,34.201376]},"properties":{"location_1_address":"653 Foothill Blvd Ste A","website":null,":@computed_region_x8wy_s94z":"2832","location_1_city":"La Cañada Flintridge","location_1_state":"CA","location_1_zip":"91011","bookstore":"La Canada Books & Toys","phone":"La Cañada Flintridge"}},{"type":"Feature","geometry":{"type":"Point","coordinates":[-118.144947,33.933278]},"properties":{"location_1_address":"12007 Paramount Boulevard","website":null,":@computed_region_x8wy_s94z":"24682","location_1_city":"Downey","location_1_state":"CA","location_1_zip":"90242","bookstore":"Libreria San Miguel","phone":"Downey"}},{"type":"Feature","geometry":{"type":"Point","coordinates":[-118.42148,34.043763]},"properties":{"location_1_address":"10580 W Pico Blvd","website":"(310) 559-2665",":@computed_region_x8wy_s94z":"24029","location_1_city":"Los Angeles","location_1_state":"CA","location_1_zip":"90064","bookstore":"Children's Book World","phone":"Los Angeles"}},{"type":"Feature","geometry":{"type":"Point","coordinates":[-118.361451,34.078829]},"properties":{"location_1_address":"420 N Fairfax Ave","website":null,":@computed_region_x8wy_s94z":"23679","location_1_city":"Los Angeles","location_1_state":"CA","location_1_zip":"90036","bookstore":"Reserve","phone":"Los Angeles"}},{"type":"Feature","geometry":{"type":"Point","coordinates":[-118.241207,34.048984]},"properties":{"location_1_address":"327 E 2nd St","website":null,":@computed_region_x8wy_s94z":"22728","location_1_city":"Los Angeles","location_1_state":"CA","location_1_zip":"90012","bookstore":"Nippon Book","phone":"Los Angeles"}},{"type":"Feature","geometry":{"type":"Point","coordinates":[-118.146551,33.782589]},"properties":{"location_1_address":"3917 E Anaheim St","website":null,":@computed_region_x8wy_s94z":"4012","location_1_city":"Long Beach","location_1_state":"CA","location_1_zip":"90804","bookstore":"Planet Books","phone":"Long Beach"}},{"type":"Feature","geometry":{"type":"Point","coordinates":[-118.335095,34.027279]},